[
    {
        "id": "662b86c41afb9c00172dd31c",
        "name": "Trần Quang Khải - Trần Khắc Chân",
        "lat": 10.7918902432446,
        "lng": 106.691054105759,
        "url": "https://giaothong.hochiminhcity.gov.vn:8007/Render/CameraHandler.ashx?id=662b86c41afb9c00172dd31c&bg=black&w=520&h=300",
        "status": "UP"
    },
    {
        "id": "5a6065c58576340017d06615",
        "name": "Tô Ngọc Vân - TX25",
        "lat": 10.8797100979598,
        "lng": 106.677986383438,
        "url": "https://giaothong.hochiminhcity.gov.vn:8007/Render/CameraHandler.ashx?id=5a6065c58576340017d06615&bg=black&w=520&h=300",
        "status": "UP"
    },
    {
        "id": "6623f4df6f998a001b2528eb",
        "name": "Quốc Lộ 13 - cầu Ông Dầu",
        "lat": 10.8361932799182,
        "lng": 106.713809967041,
        "url": "https://giaothong.hochiminhcity.gov.vn:8007/Render/CameraHandler.ashx?id=6623f4df6f998a001b2528eb&bg=black&w=520&h=300",
        "status": "UP"
    },
    {
        "id": "662b7ce71afb9c00172dc676",
        "name": "Cách Mạng Tháng Tám - Bùi Thị Xuân",
        "lat": 10.7726452614037,
        "lng": 106.691064834595,
        "url": "https://giaothong.hochiminhcity.gov.vn:8007/Render/CameraHandler.ashx?id=662b7ce71afb9c00172dc676&bg=black&w=520&h=300",
        "status": "UP"
    },
    {
        "id": "583f969161cfea0012cf68f7",
        "name": "Nguyễn Thị Định - Đường D",
        "lat": 10.7646823693643,
        "lng": 106.781423091888,
        "url": "https://giaothong.hochiminhcity.gov.vn:8007/Render/CameraHandler.ashx?id=583f969161cfea0012cf68f7&bg=black&w=520&h=300",
        "status": "UP"
    },
    {
        "id": "59ca317602eb490011a0a408",
        "name": "QL1 - Tỉnh lộ 10 B (2)",
        "lat": 10.7492355507977,
        "lng": 106.593974232674,
        "url": "https://giaothong.hochiminhcity.gov.vn:8007/Render/CameraHandler.ashx?id=59ca317602eb490011a0a408&bg=black&w=520&h=300",
        "status": "UP"
    },
    {
        "id": "6623e8da6f998a001b2524a6",
        "name": "Phan Đăng Lưu - Thích Quảng Đức",
        "lat": 10.8032933150268,
        "lng": 106.684530973434,
        "url": "https://giaothong.hochiminhcity.gov.vn:8007/Render/CameraHandler.ashx?id=6623e8da6f998a001b2524a6&bg=black&w=520&h=300",
        "status": "UP"
    },
    {
        "id": "56de42f611f398ec0c481299",
        "name": "Võ Văn Kiệt - An Dương Vương 2",
        "lat": 10.7265671915496,
        "lng": 106.620351076126,
        "url": "https://giaothong.hochiminhcity.gov.vn:8007/Render/CameraHandler.ashx?id=56de42f611f398ec0c481299&bg=black&w=520&h=300",
        "status": "UP"
    },
    {
        "id": "66b1c426779f74001867415e",
        "name": "Điện Biên Phủ - Nguyễn Gia Trí",
        "lat": 10.8010801833774,
        "lng": 106.715161800385,
        "url": "https://giaothong.hochiminhcity.gov.vn:8007/Render/CameraHandler.ashx?id=66b1c426779f74001867415e&bg=black&w=520&h=300",
        "status": "UP"
    },
    {
        "id": "595dc29c3dcfc400106f2894",
        "name": "Quốc lộ 1 - Rạch Láng Le 1",
        "lat": 10.8610818827294,
        "lng": 106.686397790909,
        "url": "https://giaothong.hochiminhcity.gov.vn:8007/Render/CameraHandler.ashx?id=595dc29c3dcfc400106f2894&bg=black&w=520&h=300",
        "status": "UP"
    },
    {
        "id": "6623f1046f998a001b2527db",
        "name": "Lũy Bán Bích - Thoại Ngọc Hầu",
        "lat": 10.7821519725547,
        "lng": 106.636122465134,
        "url": "https://giaothong.hochiminhcity.gov.vn:8007/Render/CameraHandler.ashx?id=6623f1046f998a001b2527db&bg=black&w=520&h=300",
        "status": "UP"
    },
    {
        "id": "5d9de4de766c880017188cbb",
        "name": "Cao tốc LTDG - Võ Chí Công",
        "lat": 10.796827763223,
        "lng": 106.790762543678,
        "url": "https://giaothong.hochiminhcity.gov.vn:8007/Render/CameraHandler.ashx?id=5d9de4de766c880017188cbb&bg=black&w=520&h=300",
        "status": "NOT_IMAGE"
    },
    {
        "id": "6623f44f6f998a001b2528aa",
        "name": "Võ Nguyên Giáp - Đỗ Xuân Hợp (1)",
        "lat": 10.8349709243101,
        "lng": 106.765716075897,
        "url": "https://giaothong.hochiminhcity.gov.vn:8007/Render/CameraHandler.ashx?id=6623f44f6f998a001b2528aa&bg=black&w=520&h=300",
        "status": "UP"
    },
    {
        "id": "662a881a1afb9c00172d2559",
        "name": "Kinh Dương Vương - Tên Lửa",
        "lat": 10.7380517925754,
        "lng": 106.61497592926,
        "url": "https://giaothong.hochiminhcity.gov.vn:8007/Render/CameraHandler.ashx?id=662a881a1afb9c00172d2559&bg=black&w=520&h=300",
        "status": "UP"
    },
    {
        "id": "5a605f828576340017d06608",
        "name": "Nguyễn Thái Sơn - Nguyễn Văn Nghi 1",
        "lat": 10.8243119827038,
        "lng": 106.686521172523,
        "url": "https://giaothong.hochiminhcity.gov.vn:8007/Render/CameraHandler.ashx?id=5a605f828576340017d06608&bg=black&w=520&h=300",
        "status": "NOT_IMAGE"
    },
    {
        "id": "6818833d6dfb4b0018f8ee9d",
        "name": "Mai Bá Hương - Kênh 4",
        "lat": 10.7736992353084,
        "lng": 106.509790420532,
        "url": "https://giaothong.hochiminhcity.gov.vn:8007/Render/CameraHandler.ashx?id=6818833d6dfb4b0018f8ee9d&bg=black&w=520&h=300",
        "status": "UP"
    },
    {
        "id": "68188fe36dfb4b0018f90520",
        "name": "Trần Văn Giàu - đường Kênh 1",
        "lat": 10.7536098581137,
        "lng": 106.575021743774,
        "url": "https://giaothong.hochiminhcity.gov.vn:8007/Render/CameraHandler.ashx?id=68188fe36dfb4b0018f90520&bg=black&w=520&h=300",
        "status": "NOT_IMAGE"
    },
    {
        "id": "662b4ecb1afb9c00172d8692",
        "name": "Nguyễn Chí Thanh - Thuận Kiều",
        "lat": 10.7576784340111,
        "lng": 106.658009290695,
        "url": "https://giaothong.hochiminhcity.gov.vn:8007/Render/CameraHandler.ashx?id=662b4ecb1afb9c00172d8692&bg=black&w=520&h=300",
        "status": "UP"
    },
    {
        "id": "5deb576d1dc17d7c5515ad15",
        "name": "Lý Tự Trọng - Chu Mạnh Trinh",
        "lat": 10.781944,
        "lng": 106.704602,
        "url": "https://giaothong.hochiminhcity.gov.vn:8007/Render/CameraHandler.ashx?id=5deb576d1dc17d7c5515ad15&bg=black&w=520&h=300",
        "status": "UP"
    },
    {
        "id": "5b8b2323ca057700116405d0",
        "name": "Trường Sơn - Ga Quốc Nội 2",
        "lat": 10.8129465937096,
        "lng": 106.664902567863,
        "url": "https://giaothong.hochiminhcity.gov.vn:8007/Render/CameraHandler.ashx?id=5b8b2323ca057700116405d0&bg=black&w=520&h=300",
        "status": "UP"
    },
    {
        "id": "68188a226dfb4b0018f8f70a",
        "name": "Trần Đại Nghĩa - Võ Trần Chí",
        "lat": 10.7304200365785,
        "lng": 106.577017307281,
        "url": "https://giaothong.hochiminhcity.gov.vn:8007/Render/CameraHandler.ashx?id=68188a226dfb4b0018f8f70a&bg=black&w=520&h=300",
        "status": "UP"
    },
    {
        "id": "681889a96dfb4b0018f8f67e",
        "name": "Trần Văn Giàu - cầu Tân Tạo",
        "lat": 10.7590644777735,
        "lng": 106.571368575096,
        "url": "https://giaothong.hochiminhcity.gov.vn:8007/Render/CameraHandler.ashx?id=681889a96dfb4b0018f8f67e&bg=black&w=520&h=300",
        "status": "UP"
    },
    {
        "id": "63ae7a50bfd3d90017e8f2b2",
        "name": "Ba Tháng Hai – Sư Vạn Hạnh",
        "lat": 10.7697784337206,
        "lng": 106.670830249786,
        "url": "https://giaothong.hochiminhcity.gov.vn:8007/Render/CameraHandler.ashx?id=63ae7a50bfd3d90017e8f2b2&bg=black&w=520&h=300",
        "status": "UP"
    },
    {
        "id": "587ee0ecb807da0011e33d50",
        "name": "Phan Đăng Lưu - Lê Văn Duyệt",
        "lat": 10.8019970541825,
        "lng": 106.696482896805,
        "url": "https://giaothong.hochiminhcity.gov.vn:8007/Render/CameraHandler.ashx?id=587ee0ecb807da0011e33d50&bg=black&w=520&h=300",
        "status": "UP"
    },
    {
        "id": "56de42f611f398ec0c48128f",
        "name": "Võ Văn Kiệt - Huỳnh Mẫn Đạt",
        "lat": 10.751960277381,
        "lng": 106.677197813988,
        "url": "https://giaothong.hochiminhcity.gov.vn:8007/Render/CameraHandler.ashx?id=56de42f611f398ec0c48128f&bg=black&w=520&h=300",
        "status": "UP"
    },
    {
        "id": "56de42f611f398ec0c4812a2",
        "name": "Nút giao Mỹ Thủy 2",
        "lat": 10.7701157,
        "lng": 106.7755866,
        "url": "https://giaothong.hochiminhcity.gov.vn:8007/Render/CameraHandler.ashx?id=56de42f611f398ec0c4812a2&bg=black&w=520&h=300",
        "status": "UP"
    },
    {
        "id": "6922934b44912200174bc7ec",
        "name": "Quốc Lộ 51 - Nguyễn Huệ",
        "lat": 10.5777657286059,
        "lng": 107.055587768555,
        "url": "https://giaothong.hochiminhcity.gov.vn:8007/Render/CameraHandler.ashx?id=6922934b44912200174bc7ec&bg=black&w=520&h=300",
        "status": "UP"
    },
    {
        "id": "58b571c817139d0010f35d5d",
        "name": "Nguyễn Văn Trỗi - Trần Huy Liệu",
        "lat": 10.794472307568,
        "lng": 106.677948832512,
        "url": "https://giaothong.hochiminhcity.gov.vn:8007/Render/CameraHandler.ashx?id=58b571c817139d0010f35d5d&bg=black&w=520&h=300",
        "status": "NOT_IMAGE"
    },
    {
        "id": "63bd1f21bfd3d90017ec3d04",
        "name": "Huỳnh Tấn Phát - Phạm Hữu Lầu",
        "lat": 10.7052043577961,
        "lng": 106.737660169601,
        "url": "https://giaothong.hochiminhcity.gov.vn:8007/Render/CameraHandler.ashx?id=63bd1f21bfd3d90017ec3d04&bg=black&w=520&h=300",
        "status": "UP"
    },
    {
        "id": "58df4d95dc195800111e04b9",
        "name": "Phổ Quang - Hoàng Minh Giám",
        "lat": 10.8079619154301,
        "lng": 106.672879457474,
        "url": "https://giaothong.hochiminhcity.gov.vn:8007/Render/CameraHandler.ashx?id=58df4d95dc195800111e04b9&bg=black&w=520&h=300",
        "status": "UP"
    },
    {
        "id": "586e28a0f9fab7001111b0b3",
        "name": "Quốc lộ 1 - KCX Linh Trung 1",
        "lat": 10.872081942303,
        "lng": 106.768741607666,
        "url": "https://giaothong.hochiminhcity.gov.vn:8007/Render/CameraHandler.ashx?id=586e28a0f9fab7001111b0b3&bg=black&w=520&h=300",
        "status": "UP"
    },
    {
        "id": "595dd8463dcfc400106f28b2",
        "name": "Quốc lộ 1 - Đường Lê Thị Riêng 2",
        "lat": 10.8619248135124,
        "lng": 106.654415130615,
        "url": "https://giaothong.hochiminhcity.gov.vn:8007/Render/CameraHandler.ashx?id=595dd8463dcfc400106f28b2&bg=black&w=520&h=300",
        "status": "UP"
    },
    {
        "id": "5d8cd4ee766c880017188946",
        "name": "Lê Văn Sỹ - Huỳnh Văn Bánh",
        "lat": 10.7918902432446,
        "lng": 106.671452522278,
        "url": "https://giaothong.hochiminhcity.gov.vn:8007/Render/CameraHandler.ashx?id=5d8cd4ee766c880017188946&bg=black&w=520&h=300",
        "status": "UP"
    },
    {
        "id": "662b81721afb9c00172dcc44",
        "name": "Đinh Tiên Hoàng - Trần Quang Khải",
        "lat": 10.7927439077816,
        "lng": 106.696075201035,
        "url": "https://giaothong.hochiminhcity.gov.vn:8007/Render/CameraHandler.ashx?id=662b81721afb9c00172dcc44&bg=black&w=520&h=300",
        "status": "UP"
    },
    {
        "id": "67e217c43215f90017863bc8",
        "name": "Nguyễn Thị Định - Đường C (20-1)",
        "lat": 10.7659102810674,
        "lng": 106.77956700325,
        "url": "https://giaothong.hochiminhcity.gov.vn:8007/Render/CameraHandler.ashx?id=67e217c43215f90017863bc8&bg=black&w=520&h=300",
        "status": "UP"
    },
    {
        "id": "66b1c3c2779f740018674125",
        "name": "Vòng xoay Mũi Tàu Phú Lâm",
        "lat": 10.7459416028391,
        "lng": 106.624095439911,
        "url": "https://giaothong.hochiminhcity.gov.vn:8007/Render/CameraHandler.ashx?id=66b1c3c2779f740018674125&bg=black&w=520&h=300",
        "status": "UP"
    },
    {
        "id": "5a8269c45058170011f6eae4",
        "name": "Nguyễn Văn Quỳ - Cầu Phú Mỹ",
        "lat": 10.7409610852775,
        "lng": 106.7367374897,
        "url": "https://giaothong.hochiminhcity.gov.vn:8007/Render/CameraHandler.ashx?id=5a8269c45058170011f6eae4&bg=black&w=520&h=300",
        "status": "UP"
    },
    {
        "id": "56de42f611f398ec0c481297",
        "name": "Võ Văn Kiệt - Nguyễn Tri Phương 2",
        "lat": 10.7503686605855,
        "lng": 106.670079231262,
        "url": "https://giaothong.hochiminhcity.gov.vn:8007/Render/CameraHandler.ashx?id=56de42f611f398ec0c481297&bg=black&w=520&h=300",
        "status": "UP"
    },
    {
        "id": "5822adbbedeb6c0012a2d65f",
        "name": "Võ Văn Kiệt - Cầu Chữ Y 1",
        "lat": 10.7519444666594,
        "lng": 106.68367266655,
        "url": "https://giaothong.hochiminhcity.gov.vn:8007/Render/CameraHandler.ashx?id=5822adbbedeb6c0012a2d65f&bg=black&w=520&h=300",
        "status": "UP"
    },
    {
        "id": "5deb576d1dc17d7c5515ad00",
        "name": "Điện Biên Phủ - Hai Bà Trưng",
        "lat": 10.7866311946675,
        "lng": 106.693720221519,
        "url": "https://giaothong.hochiminhcity.gov.vn:8007/Render/CameraHandler.ashx?id=5deb576d1dc17d7c5515ad00&bg=black&w=520&h=300",
        "status": "NOT_IMAGE"
    },
    {
        "id": "6623e43e6f998a001b2522cb",
        "name": "Nguyễn Thị Minh Khai - Bà Huyện Thanh Quan",
        "lat": 10.7748059039379,
        "lng": 106.690624952316,
        "url": "https://giaothong.hochiminhcity.gov.vn:8007/Render/CameraHandler.ashx?id=6623e43e6f998a001b2522cb&bg=black&w=520&h=300",
        "status": "UP"
    },
    {
        "id": "5a823e425058170011f6eaa4",
        "name": "Đinh Tiên Hoàng - Võ Thị Sáu 1",
        "lat": 10.7917743133057,
        "lng": 106.695774793625,
        "url": "https://giaothong.hochiminhcity.gov.vn:8007/Render/CameraHandler.ashx?id=5a823e425058170011f6eaa4&bg=black&w=520&h=300",
        "status": "UP"
    },
    {
        "id": "649da72ca6068200171a6dbb",
        "name": "Tôn Đức Thắng - Hàm Nghi",
        "lat": 10.7710748334425,
        "lng": 106.70635342598,
        "url": "https://giaothong.hochiminhcity.gov.vn:8007/Render/CameraHandler.ashx?id=649da72ca6068200171a6dbb&bg=black&w=520&h=300",
        "status": "UP"
    },
    {
        "id": "5a6088218576340017d06693",
        "name": "QL1 - Nút giao An Lạc 2",
        "lat": 10.7235049089888,
        "lng": 106.601693630219,
        "url": "https://giaothong.hochiminhcity.gov.vn:8007/Render/CameraHandler.ashx?id=5a6088218576340017d06693&bg=black&w=520&h=300",
        "status": "UP"
    },
    {
        "id": "63b65fd8bfd3d90017eaa461",
        "name": "Lê Văn Duyệt - Vũ Huy Tấn",
        "lat": 10.7956526724414,
        "lng": 106.696085929871,
        "url": "https://giaothong.hochiminhcity.gov.vn:8007/Render/CameraHandler.ashx?id=63b65fd8bfd3d90017eaa461&bg=black&w=520&h=300",
        "status": "UP"
    },
    {
        "id": "5deb576d1dc17d7c5515ad08",
        "name": "Cộng Hòa - Tân Kỳ Tân Quý",
        "lat": 10.8041364085074,
        "lng": 106.637651324272,
        "url": "https://giaothong.hochiminhcity.gov.vn:8007/Render/CameraHandler.ashx?id=5deb576d1dc17d7c5515ad08&bg=black&w=520&h=300",
        "status": "NOT_IMAGE"
    },
    {
        "id": "595dc70d3dcfc400106f289a",
        "name": "Quốc lộ 1 - Ngã 4 Ga",
        "lat": 10.8615244216871,
        "lng": 106.679971218109,
        "url": "https://giaothong.hochiminhcity.gov.vn:8007/Render/CameraHandler.ashx?id=595dc70d3dcfc400106f289a&bg=black&w=520&h=300",
        "status": "NOT_IMAGE"
    },
    {
        "id": "587c79e9b807da0011e33d3d",
        "name": "Điện Biên Phủ - Nguyễn Văn Thương 2",
        "lat": 10.7986878751089,
        "lng": 106.718965172768,
        "url": "https://giaothong.hochiminhcity.gov.vn:8007/Render/CameraHandler.ashx?id=587c79e9b807da0011e33d3d&bg=black&w=520&h=300",
        "status": "UP"
    },
    {
        "id": "63b65ebebfd3d90017eaa3ae",
        "name": "Nguyễn Hữu Cảnh - Ngô Tất Tố 2 (Dạ cầu Thủ Thiêm 1)",
        "lat": 10.7891447995017,
        "lng": 106.71642780304,
        "url": "https://giaothong.hochiminhcity.gov.vn:8007/Render/CameraHandler.ashx?id=63b65ebebfd3d90017eaa3ae&bg=black&w=520&h=300",
        "status": "UP"
    },
    {
        "id": "5874769eb807da0011e33cec",
        "name": "Cộng Hòa - Út Tịch 2",
        "lat": 10.8001053464053,
        "lng": 106.657757163048,
        "url": "https://giaothong.hochiminhcity.gov.vn:8007/Render/CameraHandler.ashx?id=5874769eb807da0011e33cec&bg=black&w=520&h=300",
        "status": "UP"
    },
    {
        "id": "63b660f8bfd3d90017eaa4ea",
        "name": "Cầu Tân Thuận 2 - Q7 (Q7-Q4)",
        "lat": 10.7526506780822,
        "lng": 106.723862886429,
        "url": "https://giaothong.hochiminhcity.gov.vn:8007/Render/CameraHandler.ashx?id=63b660f8bfd3d90017eaa4ea&bg=black&w=520&h=300",
        "status": "UP"
    },
    {
        "id": "58af994abd82540010390c37",
        "name": "Nguyễn Hữu Cảnh - Tôn Đức Thắng",
        "lat": 10.7826315159924,
        "lng": 106.706235408783,
        "url": "https://giaothong.hochiminhcity.gov.vn:8007/Render/CameraHandler.ashx?id=58af994abd82540010390c37&bg=black&w=520&h=300",
        "status": "UP"
    },
    {
        "id": "56df8108c062921100c143db",
        "name": "Hoàng Minh Giám - Hồng Hà",
        "lat": 10.8090315732439,
        "lng": 106.674022078514,
        "url": "https://giaothong.hochiminhcity.gov.vn:8007/Render/CameraHandler.ashx?id=56df8108c062921100c143db&bg=black&w=520&h=300",
        "status": "UP"
    },
    {
        "id": "63ae7903bfd3d90017e8f211",
        "name": "Hậu Giang -  Hẻm 491",
        "lat": 10.7483923035435,
        "lng": 106.636669635773,
        "url": "https://giaothong.hochiminhcity.gov.vn:8007/Render/CameraHandler.ashx?id=63ae7903bfd3d90017e8f211&bg=black&w=520&h=300",
        "status": "UP"
    },
    {
        "id": "63ae7727bfd3d90017e8f14a",
        "name": "Hoàng Diệu - Đoàn Văn Bơ 2",
        "lat": 10.7635071530486,
        "lng": 106.703719496727,
        "url": "https://giaothong.hochiminhcity.gov.vn:8007/Render/CameraHandler.ashx?id=63ae7727bfd3d90017e8f14a&bg=black&w=520&h=300",
        "status": "UP"
    },
    {
        "id": "6623f36e6f998a001b252878",
        "name": "Phạm Văn Đồng - Kha Vạn Cân 2",
        "lat": 10.8663923069317,
        "lng": 106.762282848358,
        "url": "https://giaothong.hochiminhcity.gov.vn:8007/Render/CameraHandler.ashx?id=6623f36e6f998a001b252878&bg=black&w=520&h=300",
        "status": "UP"
    },
    {
        "id": "5d9ddec9766c880017188c9c",
        "name": "Nút giao Hàng Xanh 5 (Hàng Xanh - Bạch Đằng)",
        "lat": 10.8021551350728,
        "lng": 106.711503267288,
        "url": "https://giaothong.hochiminhcity.gov.vn:8007/Render/CameraHandler.ashx?id=5d9ddec9766c880017188c9c&bg=black&w=520&h=300",
        "status": "UP"
    },
    {
        "id": "5deb576d1dc17d7c5515ad02",
        "name": "Điện Biên Phủ - Pasteur",
        "lat": 10.7843441648872,
        "lng": 106.691552996635,
        "url": "https://giaothong.hochiminhcity.gov.vn:8007/Render/CameraHandler.ashx?id=5deb576d1dc17d7c5515ad02&bg=black&w=520&h=300",
        "status": "UP"
    },
    {
        "id": "681885ff6dfb4b0018f8f1ee",
        "name": "Trần Đại Nghĩa - Kênh A",
        "lat": 10.7541368788109,
        "lng": 106.519575119019,
        "url": "https://giaothong.hochiminhcity.gov.vn:8007/Render/CameraHandler.ashx?id=681885ff6dfb4b0018f8f1ee&bg=black&w=520&h=300",
        "status": "UP"
    },
    {
        "id": "63ae79aabfd3d90017e8f26a",
        "name": "Cách Mạng Tháng Tám - Trường Sơn",
        "lat": 10.7858618271433,
        "lng": 106.6664904356,
        "url": "https://giaothong.hochiminhcity.gov.vn:8007/Render/CameraHandler.ashx?id=63ae79aabfd3d90017e8f26a&bg=black&w=520&h=300",
        "status": "UP"
    },
    {
        "id": "5d8cd7fb766c880017188954",
        "name": "Phạm Văn Đồng - Đường 20 (hướng đi Sân bay)",
        "lat": 10.8291383225836,
        "lng": 106.722366213799,
        "url": "https://giaothong.hochiminhcity.gov.vn:8007/Render/CameraHandler.ashx?id=5d8cd7fb766c880017188954&bg=black&w=520&h=300",
        "status": "UP"
    },
    {
        "id": "56de42f611f398ec0c481293",
        "name": "Võ Văn Kiệt - Hải Thượng Lãn Ông 1",
        "lat": 10.7499786604875,
        "lng": 106.663234233856,
        "url": "https://giaothong.hochiminhcity.gov.vn:8007/Render/CameraHandler.ashx?id=56de42f611f398ec0c481293&bg=black&w=520&h=300",
        "status": "UP"
    },
    {
        "id": "63b66089bfd3d90017eaa4bd",
        "name": "Nơ Trang Long - Chu Văn An",
        "lat": 10.8114079914905,
        "lng": 106.695753335953,
        "url": "https://giaothong.hochiminhcity.gov.vn:8007/Render/CameraHandler.ashx?id=63b66089bfd3d90017eaa4bd&bg=black&w=520&h=300",
        "status": "UP"
    },
    {
        "id": "63ae798abfd3d90017e8f255",
        "name": "Cách Mạng Tháng Tám - Bắc Hải",
        "lat": 10.7869104851311,
        "lng": 106.664623618126,
        "url": "https://giaothong.hochiminhcity.gov.vn:8007/Render/CameraHandler.ashx?id=63ae798abfd3d90017e8f255&bg=black&w=520&h=300",
        "status": "UP"
    },
    {
        "id": "662a89f51afb9c00172d26ef",
        "name": "Nguyễn Văn Linh - Trịnh Quang Nghị 2",
        "lat": 10.7024001433989,
        "lng": 106.634652614593,
        "url": "https://giaothong.hochiminhcity.gov.vn:8007/Render/CameraHandler.ashx?id=662a89f51afb9c00172d26ef&bg=black&w=520&h=300",
        "status": "UP"
    },
    {
        "id": "6318287ec9eae60017a19f36",
        "name": "Nguyễn Thị Minh Khai - Đinh Tiên Hoàng 2",
        "lat": 10.7865626894198,
        "lng": 106.701729297638,
        "url": "https://giaothong.hochiminhcity.gov.vn:8007/Render/CameraHandler.ashx?id=6318287ec9eae60017a19f36&bg=black&w=520&h=300",
        "status": "UP"
    },
    {
        "id": "6792f3058c5ed4001b27f58e",
        "name": "Trần Văn Giàu - Cầu Đôi",
        "lat": 10.7937661942221,
        "lng": 106.505670547485,
        "url": "https://giaothong.hochiminhcity.gov.vn:8007/Render/CameraHandler.ashx?id=6792f3058c5ed4001b27f58e&bg=black&w=520&h=300",
        "status": "UP"
    },
    {
        "id": "587476e3b807da0011e33cee",
        "name": "Cộng Hòa - Út Tịch 1",
        "lat": 10.8010380283306,
        "lng": 106.657853722572,
        "url": "https://giaothong.hochiminhcity.gov.vn:8007/Render/CameraHandler.ashx?id=587476e3b807da0011e33cee&bg=black&w=520&h=300",
        "status": "UP"
    },
    {
        "id": "597bf277faa7ea0011c7c29f",
        "name": "Cầu Phú Hữu 2",
        "lat": 10.8208924000834,
        "lng": 106.792302131653,
        "url": "https://giaothong.hochiminhcity.gov.vn:8007/Render/CameraHandler.ashx?id=597bf277faa7ea0011c7c29f&bg=black&w=520&h=300",
        "status": "UP"
    },
    {
        "id": "5d9de49d766c880017188cb9",
        "name": "Cao tốc LTDG - Đỗ Xuân Hợp 2",
        "lat": 10.7961796195486,
        "lng": 106.778848171234,
        "url": "https://giaothong.hochiminhcity.gov.vn:8007/Render/CameraHandler.ashx?id=5d9de49d766c880017188cb9&bg=black&w=520&h=300",
        "status": "UP"
    },
    {
        "id": "5d9ddf49766c880017188ca0",
        "name": "Nút giao Hàng Xanh 7 (Hàng Xanh - Cầu Văn Thánh)",
        "lat": 10.8012277259948,
        "lng": 106.712324023247,
        "url": "https://giaothong.hochiminhcity.gov.vn:8007/Render/CameraHandler.ashx?id=5d9ddf49766c880017188ca0&bg=black&w=520&h=300",
        "status": "UP"
    },
    {
        "id": "63ae763bbfd3d90017e8f0c4",
        "name": "Lý Thái Tổ - Nguyễn Đình Chiểu",
        "lat": 10.7662581006404,
        "lng": 106.678780317307,
        "url": "https://giaothong.hochiminhcity.gov.vn:8007/Render/CameraHandler.ashx?id=63ae763bbfd3d90017e8f0c4&bg=black&w=520&h=300",
        "status": "UP"
    },
    {
        "id": "5d8cda6a766c880017188960",
        "name": "Phạm Văn Đồng - Kha Vạn Cân (hướng đi Sân bay)",
        "lat": 10.8411932946322,
        "lng": 106.743823885918,
        "url": "https://giaothong.hochiminhcity.gov.vn:8007/Render/CameraHandler.ashx?id=5d8cda6a766c880017188960&bg=black&w=520&h=300",
        "status": "UP"
    },
    {
        "id": "662b80e81afb9c00172dcbec",
        "name": "Cách Mạng Tháng Tám - Sương Nguyệt Anh",
        "lat": 10.7730352321784,
        "lng": 106.690050959587,
        "url": "https://giaothong.hochiminhcity.gov.vn:8007/Render/CameraHandler.ashx?id=662b80e81afb9c00172dcbec&bg=black&w=520&h=300",
        "status": "UP"
    },
    {
        "id": "681826506dfb4b0018f83e64",
        "name": "Mai Bá Hương - Kênh 3",
        "lat": 10.7767346595405,
        "lng": 106.511378288269,
        "url": "https://giaothong.hochiminhcity.gov.vn:8007/Render/CameraHandler.ashx?id=681826506dfb4b0018f83e64&bg=black&w=520&h=300",
        "status": "NOT_IMAGE"
    },
    {
        "id": "56df84abc062921100c143e5",
        "name": "Nút giao Nguyễn Thái Sơn 3 (Phạm Văn Đồng)",
        "lat": 10.8142217306645,
        "lng": 106.679236292839,
        "url": "https://giaothong.hochiminhcity.gov.vn:8007/Render/CameraHandler.ashx?id=56df84abc062921100c143e5&bg=black&w=520&h=300",
        "status": "UP"
    },
    {
        "id": "662a86a11afb9c00172d2410",
        "name": "Tùng Thiện Vương - Cao Xuân Dục",
        "lat": 10.7456043005395,
        "lng": 106.65856719017,
        "url": "https://giaothong.hochiminhcity.gov.vn:8007/Render/CameraHandler.ashx?id=662a86a11afb9c00172d2410&bg=black&w=520&h=300",
        "status": "UP"
    },
    {
        "id": "5a6083198576340017d0667a",
        "name": "QL1 - Tân Kỳ Tân Quý 1",
        "lat": 10.7900142805592,
        "lng": 106.595411896706,
        "url": "https://giaothong.hochiminhcity.gov.vn:8007/Render/CameraHandler.ashx?id=5a6083198576340017d0667a&bg=black&w=520&h=300",
        "status": "UP"
    },
    {
        "id": "56de42f611f398ec0c48128b",
        "name": "Võ Văn Kiệt - Nguyễn Văn Cừ 1",
        "lat": 10.7543213358374,
        "lng": 106.68691277504,
        "url": "https://giaothong.hochiminhcity.gov.vn:8007/Render/CameraHandler.ashx?id=56de42f611f398ec0c48128b&bg=black&w=520&h=300",
        "status": "UP"
    },
    {
        "id": "58e49ff8d9d6200011e0b9d4",
        "name": "Nam Kỳ Khởi Nghĩa - Trần Quốc Toản",
        "lat": 10.7863150164711,
        "lng": 106.687223911285,
        "url": "https://giaothong.hochiminhcity.gov.vn:8007/Render/CameraHandler.ashx?id=58e49ff8d9d6200011e0b9d4&bg=black&w=520&h=300",
        "status": "UP"
    },
    {
        "id": "6922924644912200174bc737",
        "name": "Quốc Lộ 51 - Mỹ Xuân - Ngãi Giao 2",
        "lat": 10.622985857355,
        "lng": 107.055587768555,
        "url": "https://giaothong.hochiminhcity.gov.vn:8007/Render/CameraHandler.ashx?id=6922924644912200174bc737&bg=black&w=520&h=300",
        "status": "UP"
    },
    {
        "id": "681885a26dfb4b0018f8f176",
        "name": "Lê Đình Chi - Kênh 4",
        "lat": 10.766405660338,
        "lng": 106.524939537048,
        "url": "https://giaothong.hochiminhcity.gov.vn:8007/Render/CameraHandler.ashx?id=681885a26dfb4b0018f8f176&bg=black&w=520&h=300",
        "status": "UP"
    },
    {
        "id": "5a8241105058170011f6eaa6",
        "name": "Đinh Tiên Hoàng - Võ Thị Sáu 2",
        "lat": 10.7919218604929,
        "lng": 106.695785522461,
        "url": "https://giaothong.hochiminhcity.gov.vn:8007/Render/CameraHandler.ashx?id=5a8241105058170011f6eaa6&bg=black&w=520&h=300",
        "status": "UP"
    },
    {
        "id": "65e054fb6b18080018db6632",
        "name": "Lê Duẩn - Mạc Đĩnh Chi",
        "lat": 10.7832164525575,
        "lng": 106.701187491417,
        "url": "https://giaothong.hochiminhcity.gov.vn:8007/Render/CameraHandler.ashx?id=65e054fb6b18080018db6632&bg=black&w=520&h=300",
        "status": "UP"
    },
    {
        "id": "5a825ded5058170011f6ead7",
        "name": "Quốc lộ 50 - Cầu Ông Thìn (2)",
        "lat": 10.6484508725221,
        "lng": 106.655831336975,
        "url": "https://giaothong.hochiminhcity.gov.vn:8007/Render/CameraHandler.ashx?id=5a825ded5058170011f6ead7&bg=black&w=520&h=300",
        "status": "UP"
    },
    {
        "id": "5d8cdb0a766c880017188964",
        "name": "Trường Chinh - Xuân Hồng",
        "lat": 10.7937134991298,
        "lng": 106.651657819748,
        "url": "https://giaothong.hochiminhcity.gov.vn:8007/Render/CameraHandler.ashx?id=5d8cdb0a766c880017188964&bg=black&w=520&h=300",
        "status": "UP"
    },
    {
        "id": "68188bb96dfb4b0018f8fdbf",
        "name": "Vĩnh Lộc - Trần Hải Phụng",
        "lat": 10.7860515343869,
        "lng": 106.55412197113,
        "url": "https://giaothong.hochiminhcity.gov.vn:8007/Render/CameraHandler.ashx?id=68188bb96dfb4b0018f8fdbf&bg=black&w=520&h=300",
        "status": "UP"
    },
    {
        "id": "56df833ac062921100c143e1",
        "name": "Nguyễn Hữu Thọ - Nguyễn Thị Thập 2",
        "lat": 10.7403707962704,
        "lng": 106.701048016548,
        "url": "https://giaothong.hochiminhcity.gov.vn:8007/Render/CameraHandler.ashx?id=56df833ac062921100c143e1&bg=black&w=520&h=300",
        "status": "NOT_IMAGE"
    },
    {
        "id": "5a6082698576340017d06678",
        "name": "QL1 - Trạm thu phí AS-AL 2",
        "lat": 10.7947673992211,
        "lng": 106.59654378891,
        "url": "https://giaothong.hochiminhcity.gov.vn:8007/Render/CameraHandler.ashx?id=5a6082698576340017d06678&bg=black&w=520&h=300",
        "status": "UP"
    },
    {
        "id": "6792efe48c5ed4001b27f336",
        "name": "Xa Lộ Hà Nội - Cổng ĐH An ninh",
        "lat": 10.8735359428243,
        "lng": 106.808030605316,
        "url": "https://giaothong.hochiminhcity.gov.vn:8007/Render/CameraHandler.ashx?id=6792efe48c5ed4001b27f336&bg=black&w=520&h=300",
        "status": "UP"
    },
    {
        "id": "63b5503bbfd3d90017ea7ccc",
        "name": "Nút giao Mỹ Thủy (7)",
        "lat": 10.7697468141455,
        "lng": 106.775082349777,
        "url": "https://giaothong.hochiminhcity.gov.vn:8007/Render/CameraHandler.ashx?id=63b5503bbfd3d90017ea7ccc&bg=black&w=520&h=300",
        "status": "UP"
    },
    {
        "id": "662a873b1afb9c00172d2483",
        "name": "Võ Trần Chí - Trần Văn Giàu 1",
        "lat": 10.7489509551128,
        "lng": 106.581823825836,
        "url": "https://giaothong.hochiminhcity.gov.vn:8007/Render/CameraHandler.ashx?id=662a873b1afb9c00172d2483&bg=black&w=520&h=300",
        "status": "UP"
    },
    {
        "id": "66b1c3fa779f740018674146",
        "name": "Nguyễn Hữu Cảnh - Ung Văn Khiêm",
        "lat": 10.7991305062692,
        "lng": 106.723707318306,
        "url": "https://giaothong.hochiminhcity.gov.vn:8007/Render/CameraHandler.ashx?id=66b1c3fa779f740018674146&bg=black&w=520&h=300",
        "status": "UP"
    },
    {
        "id": "5ad0621c98d8fc001102e268",
        "name": "Lý Tự Trọng - Hai Bà Trưng 2",
        "lat": 10.779137682017,
        "lng": 106.702335476875,
        "url": "https://giaothong.hochiminhcity.gov.vn:8007/Render/CameraHandler.ashx?id=5ad0621c98d8fc001102e268&bg=black&w=520&h=300",
        "status": "UP"
    },
    {
        "id": "66b1c34d779f74001867409e",
        "name": "Ba Tháng Hai - Thành Thái",
        "lat": 10.768197450899,
        "lng": 106.666828393936,
        "url": "https://giaothong.hochiminhcity.gov.vn:8007/Render/CameraHandler.ashx?id=66b1c34d779f74001867409e&bg=black&w=520&h=300",
        "status": "UP"
    },
    {
        "id": "595f89323dcfc400106f28ee",
        "name": "Quốc lộ 1 - BQB Cầu vượt Quang Trung A (hướng An Sương)",
        "lat": 10.8532003648042,
        "lng": 106.633172035217,
        "url": "https://giaothong.hochiminhcity.gov.vn:8007/Render/CameraHandler.ashx?id=595f89323dcfc400106f28ee&bg=black&w=520&h=300",
        "status": "UP"
    },
    {
        "id": "56de42f611f398ec0c48128c",
        "name": "Võ Văn Kiệt - Nguyễn Văn Cừ 2",
        "lat": 10.7536415,
        "lng": 106.6864407,
        "url": "https://giaothong.hochiminhcity.gov.vn:8007/Render/CameraHandler.ashx?id=56de42f611f398ec0c48128c&bg=black&w=520&h=300",
        "status": "UP"
    },
    {
        "id": "662b558c1afb9c00172d8ed2",
        "name": "625 Quang Trung",
        "lat": 10.8351289878163,
        "lng": 106.663491725922,
        "url": "https://giaothong.hochiminhcity.gov.vn:8007/Render/CameraHandler.ashx?id=662b558c1afb9c00172d8ed2&bg=black&w=520&h=300",
        "status": "UP"
    },
    {
        "id": "6623f4836f998a001b2528bf",
        "name": "Võ Nguyên Giáp - Đỗ Xuân Hợp (2)",
        "lat": 10.8354978023394,
        "lng": 106.765801906586,
        "url": "https://giaothong.hochiminhcity.gov.vn:8007/Render/CameraHandler.ashx?id=6623f4836f998a001b2528bf&bg=black&w=520&h=300",
        "status": "UP"
    },
    {
        "id": "662b85bf1afb9c00172dd149",
        "name": "Nam Kỳ Khởi Nghĩa - Hàm Nghi",
        "lat": 10.7709694352995,
        "lng": 106.701128482819,
        "url": "https://giaothong.hochiminhcity.gov.vn:8007/Render/CameraHandler.ashx?id=662b85bf1afb9c00172dd149&bg=black&w=520&h=300",
        "status": "UP"
    },
    {
        "id": "595d98fc3dcfc400106f287b",
        "name": "Quốc lộ 1 - An Phú Đông 13 (2)",
        "lat": 10.8589376668263,
        "lng": 106.711578369141,
        "url": "https://giaothong.hochiminhcity.gov.vn:8007/Render/CameraHandler.ashx?id=595d98fc3dcfc400106f287b&bg=black&w=520&h=300",
        "status": "NOT_IMAGE"
    },
    {
        "id": "63b3c274bfd3d90017e9ab93",
        "name": "Hồng Bàng - Phù Đổng Thiên Vương",
        "lat": 10.7546955197447,
        "lng": 106.662520766258,
        "url": "https://giaothong.hochiminhcity.gov.vn:8007/Render/CameraHandler.ashx?id=63b3c274bfd3d90017e9ab93&bg=black&w=520&h=300",
        "status": "UP"
    },
    {
        "id": "6818887f6dfb4b0018f8f54c",
        "name": "Trần Văn Giàu - Võ Văn Vân",
        "lat": 10.7629906888237,
        "lng": 106.567468643188,
        "url": "https://giaothong.hochiminhcity.gov.vn:8007/Render/CameraHandler.ashx?id=6818887f6dfb4b0018f8f54c&bg=black&w=520&h=300",
        "status": "UP"
    },
    {
        "id": "63b54bcdbfd3d90017ea7a82",
        "name": "Tỉnh lộ 43 - KCX Linh Trung 2",
        "lat": 10.8960825794088,
        "lng": 106.718090772629,
        "url": "https://giaothong.hochiminhcity.gov.vn:8007/Render/CameraHandler.ashx?id=63b54bcdbfd3d90017ea7a82&bg=black&w=520&h=300",
        "status": "UP"
    },
    {
        "id": "68eddd0a230ee50017d040b2",
        "name": "Mỹ Phước Tân Vạn - Phạm Ngọc Thạch (2)",
        "lat": 11.00805287907,
        "lng": 106.669006347656,
        "url": "https://giaothong.hochiminhcity.gov.vn:8007/Render/CameraHandler.ashx?id=68eddd0a230ee50017d040b2&bg=black&w=520&h=300",
        "status": "UP"
    },
    {
        "id": "68a587d54e89b100173b6021",
        "name": "Tỉnh Lộ 8 - Tỉnh Lộ 15 (1)",
        "lat": 10.9836400150392,
        "lng": 106.576770544052,
        "url": "https://giaothong.hochiminhcity.gov.vn:8007/Render/CameraHandler.ashx?id=68a587d54e89b100173b6021&bg=black&w=520&h=300",
        "status": "UP"
    },
    {
        "id": "5b5995a3fd4edb0019c7d9ab",
        "name": "Võ Văn Kiệt - Cầu Chà Và 2 (trên cầu)",
        "lat": 10.7489404145267,
        "lng": 106.660348176956,
        "url": "https://giaothong.hochiminhcity.gov.vn:8007/Render/CameraHandler.ashx?id=5b5995a3fd4edb0019c7d9ab&bg=black&w=520&h=300",
        "status": "UP"
    },
    {
        "id": "692291f044912200174bc703",
        "name": "Quốc Lộ 51 - Đường B1 - Đường N2-2",
        "lat": 10.6341211316771,
        "lng": 107.048034667969,
        "url": "https://giaothong.hochiminhcity.gov.vn:8007/Render/CameraHandler.ashx?id=692291f044912200174bc703&bg=black&w=520&h=300",
        "status": "UP"
    },
    {
        "id": "662b81a31afb9c00172dcc65",
        "name": "Nam Kỳ Khởi Nghĩa - Võ Văn Tần",
        "lat": 10.7805394362678,
        "lng": 106.693907976151,
        "url": "https://giaothong.hochiminhcity.gov.vn:8007/Render/CameraHandler.ashx?id=662b81a31afb9c00172dcc65&bg=black&w=520&h=300",
        "status": "UP"
    },
    {
        "id": "63ae7b3cbfd3d90017e8f34d",
        "name": "Ba Tháng Hai - Lý Thường Kiệt 3",
        "lat": 10.7644610285251,
        "lng": 106.659817099571,
        "url": "https://giaothong.hochiminhcity.gov.vn:8007/Render/CameraHandler.ashx?id=63ae7b3cbfd3d90017e8f34d&bg=black&w=520&h=300",
        "status": "NOT_IMAGE"
    },
    {
        "id": "6318283cc9eae60017a19f0c",
        "name": "Nguyễn Thị Minh Khai - Đinh Tiên Hoàng 1",
        "lat": 10.7866101161314,
        "lng": 106.701568365097,
        "url": "https://giaothong.hochiminhcity.gov.vn:8007/Render/CameraHandler.ashx?id=6318283cc9eae60017a19f0c&bg=black&w=520&h=300",
        "status": "UP"
    },
    {
        "id": "5deb576d1dc17d7c5515acf6",
        "name": "Nút giao Ngã sáu Cộng Hòa",
        "lat": 10.765389,
        "lng": 106.681205,
        "url": "https://giaothong.hochiminhcity.gov.vn:8007/Render/CameraHandler.ashx?id=5deb576d1dc17d7c5515acf6&bg=black&w=520&h=300",
        "status": "UP"
    },
    {
        "id": "58746488b807da0011e33cd7",
        "name": "Cầu vượt Sóng Thần 2",
        "lat": 10.8743050851613,
        "lng": 106.748507022858,
        "url": "https://giaothong.hochiminhcity.gov.vn:8007/Render/CameraHandler.ashx?id=58746488b807da0011e33cd7&bg=black&w=520&h=300",
        "status": "UP"
    },
    {
        "id": "662b83381afb9c00172dcf88",
        "name": "Hai Bà Trưng - Nguyễn Đình Chiểu",
        "lat": 10.7846919631639,
        "lng": 106.695957183838,
        "url": "https://giaothong.hochiminhcity.gov.vn:8007/Render/CameraHandler.ashx?id=662b83381afb9c00172dcf88&bg=black&w=520&h=300",
        "status": "UP"
    },
    {
        "id": "5822b5ededeb6c0012a2d66a",
        "name": "Mai Chí Thọ - Nguyễn Cơ Thạch 1",
        "lat": 10.7732144077704,
        "lng": 106.722586154938,
        "url": "https://giaothong.hochiminhcity.gov.vn:8007/Render/CameraHandler.ashx?id=5822b5ededeb6c0012a2d66a&bg=black&w=520&h=300",
        "status": "UP"
    },
    {
        "id": "63b660d8bfd3d90017eaa4d5",
        "name": "Cầu Tân Thuận 2 - Q7 (Q4-Q7)",
        "lat": 10.7527666230832,
        "lng": 106.723691225052,
        "url": "https://giaothong.hochiminhcity.gov.vn:8007/Render/CameraHandler.ashx?id=63b660d8bfd3d90017eaa4d5&bg=black&w=520&h=300",
        "status": "UP"
    },
    {
        "id": "63ae7be0bfd3d90017e8f3a8",
        "name": "Ba Tháng Hai - Lê Đại Hành 1",
        "lat": 10.7621527500863,
        "lng": 106.657199263573,
        "url": "https://giaothong.hochiminhcity.gov.vn:8007/Render/CameraHandler.ashx?id=63ae7be0bfd3d90017e8f3a8&bg=black&w=520&h=300",
        "status": "UP"
    },
    {
        "id": "63b54a04bfd3d90017ea783e",
        "name": "Lê Văn Việt - Hoàng Hữu Nam",
        "lat": 10.8502078623705,
        "lng": 106.813673973084,
        "url": "https://giaothong.hochiminhcity.gov.vn:8007/Render/CameraHandler.ashx?id=63b54a04bfd3d90017ea783e&bg=black&w=520&h=300",
        "status": "UP"
    },
    {
        "id": "63b54f70bfd3d90017ea7c86",
        "name": "Cầu Sài Gòn (10)",
        "lat": 10.7985614089434,
        "lng": 106.726276874542,
        "url": "https://giaothong.hochiminhcity.gov.vn:8007/Render/CameraHandler.ashx?id=63b54f70bfd3d90017ea7c86&bg=black&w=520&h=300",
        "status": "UP"
    },
    {
        "id": "5a8267fe5058170011f6eae1",
        "name": "Lê Văn Lương - Cầu Rạch Đĩa",
        "lat": 10.7235786992945,
        "lng": 106.697700619698,
        "url": "https://giaothong.hochiminhcity.gov.vn:8007/Render/CameraHandler.ashx?id=5a8267fe5058170011f6eae1&bg=black&w=520&h=300",
        "status": "UP"
    },
    {
        "id": "595d984b3dcfc400106f2879",
        "name": "Quốc lộ 1 - An Phú Đông 13 (1)",
        "lat": 10.8589534719139,
        "lng": 106.711691021919,
        "url": "https://giaothong.hochiminhcity.gov.vn:8007/Render/CameraHandler.ashx?id=595d984b3dcfc400106f2879&bg=black&w=520&h=300",
        "status": "UP"
    },
    {
        "id": "58746122b807da0011e33cc5",
        "name": "Quốc lộ 1 - ĐH Nông Lâm 2",
        "lat": 10.8672299545045,
        "lng": 106.787940859795,
        "url": "https://giaothong.hochiminhcity.gov.vn:8007/Render/CameraHandler.ashx?id=58746122b807da0011e33cc5&bg=black&w=520&h=300",
        "status": "UP"
    },
    {
        "id": "5b25a268f13cba001124e713",
        "name": "Nam Kỳ Khởi Nghĩa - Lê Thánh Tôn",
        "lat": 10.7747057769436,
        "lng": 106.699481606483,
        "url": "https://giaothong.hochiminhcity.gov.vn:8007/Render/CameraHandler.ashx?id=5b25a268f13cba001124e713&bg=black&w=520&h=300",
        "status": "NOT_IMAGE"
    },
    {
        "id": "662b7f651afb9c00172dc992",
        "name": "11B Nguyễn Bỉnh Khiêm",
        "lat": 10.7857353555811,
        "lng": 106.706600189209,
        "url": "https://giaothong.hochiminhcity.gov.vn:8007/Render/CameraHandler.ashx?id=662b7f651afb9c00172dc992&bg=black&w=520&h=300",
        "status": "UP"
    },
    {
        "id": "63ae768dbfd3d90017e8f0f1",
        "name": "Khánh Hội - Vĩnh Hội",
        "lat": 10.7560025246799,
        "lng": 106.701278686523,
        "url": "https://giaothong.hochiminhcity.gov.vn:8007/Render/CameraHandler.ashx?id=63ae768dbfd3d90017e8f0f1&bg=black&w=520&h=300",
        "status": "UP"
    },
    {
        "id": "6818884f6dfb4b0018f8f50f",
        "name": "Trần Đại Nghĩa - Kênh C",
        "lat": 10.7344045962095,
        "lng": 106.559443473816,
        "url": "https://giaothong.hochiminhcity.gov.vn:8007/Render/CameraHandler.ashx?id=6818884f6dfb4b0018f8f50f&bg=black&w=520&h=300",
        "status": "UP"
    },
    {
        "id": "662a89ae1afb9c00172d26ad",
        "name": "Nguyễn Văn Linh - Trịnh Quang Nghị",
        "lat": 10.7028218314316,
        "lng": 106.633536815643,
        "url": "https://giaothong.hochiminhcity.gov.vn:8007/Render/CameraHandler.ashx?id=662a89ae1afb9c00172d26ad&bg=black&w=520&h=300",
        "status": "UP"
    },
    {
        "id": "63b54a70bfd3d90017ea7862",
        "name": "Lã Xuân Oai - Đường D2",
        "lat": 10.830049838744,
        "lng": 106.804490089417,
        "url": "https://giaothong.hochiminhcity.gov.vn:8007/Render/CameraHandler.ashx?id=63b54a70bfd3d90017ea7862&bg=black&w=520&h=300",
        "status": "UP"
    },
    {
        "id": "58e49783d9d6200011e0b9ce",
        "name": "Trường Chinh - Phan Văn Hớn 2 (HM-Q12)",
        "lat": 10.8274733494884,
        "lng": 106.624760627747,
        "url": "https://giaothong.hochiminhcity.gov.vn:8007/Render/CameraHandler.ashx?id=58e49783d9d6200011e0b9ce&bg=black&w=520&h=300",
        "status": "NOT_IMAGE"
    },
    {
        "id": "5deb576d1dc17d7c5515ad0c",
        "name": "Nút giao Ngã sáu Phù Đổng 1",
        "lat": 10.771135,
        "lng": 106.693342,
        "url": "https://giaothong.hochiminhcity.gov.vn:8007/Render/CameraHandler.ashx?id=5deb576d1dc17d7c5515ad0c&bg=black&w=520&h=300",
        "status": "NOT_IMAGE"
    },
    {
        "id": "6623ef776f998a001b252768",
        "name": "Quốc Lộ 22 - Nguyễn Thị Sóc",
        "lat": 10.8616719345273,
        "lng": 106.602745056152,
        "url": "https://giaothong.hochiminhcity.gov.vn:8007/Render/CameraHandler.ashx?id=6623ef776f998a001b252768&bg=black&w=520&h=300",
        "status": "UP"
    },
    {
        "id": "58d7bbf2c1e33c00112b3216",
        "name": "Quốc lộ 1 - Đinh Đức Thiện 2",
        "lat": 10.6656266937569,
        "lng": 106.570794582367,
        "url": "https://giaothong.hochiminhcity.gov.vn:8007/Render/CameraHandler.ashx?id=58d7bbf2c1e33c00112b3216&bg=black&w=520&h=300",
        "status": "UP"
    },
    {
        "id": "662b51d21afb9c00172d89bf",
        "name": "Tên Lửa - Đường số 7",
        "lat": 10.7521974381054,
        "lng": 106.610255241394,
        "url": "https://giaothong.hochiminhcity.gov.vn:8007/Render/CameraHandler.ashx?id=662b51d21afb9c00172d89bf&bg=black&w=520&h=300",
        "status": "UP"
    },
    {
        "id": "58746295b807da0011e33ccb",
        "name": "Quốc lộ 1 - Bình Đường",
        "lat": 10.8752217316573,
        "lng": 106.758962273598,
        "url": "https://giaothong.hochiminhcity.gov.vn:8007/Render/CameraHandler.ashx?id=58746295b807da0011e33ccb&bg=black&w=520&h=300",
        "status": "UP"
    },
    {
        "id": "585b2baec3f96200127dc508",
        "name": "Nguyễn Văn Linh - Huỳnh Tấn Phát 2",
        "lat": 10.7525452734972,
        "lng": 106.728331446648,
        "url": "https://giaothong.hochiminhcity.gov.vn:8007/Render/CameraHandler.ashx?id=585b2baec3f96200127dc508&bg=black&w=520&h=300",
        "status": "UP"
    },
    {
        "id": "5a606cd08576340017d06628",
        "name": "BX Miền Đông - Đinh Bộ Lĩnh 2",
        "lat": 10.8144114199963,
        "lng": 106.71005487442,
        "url": "https://giaothong.hochiminhcity.gov.vn:8007/Render/CameraHandler.ashx?id=5a606cd08576340017d06628&bg=black&w=520&h=300",
        "status": "UP"
    },
    {
        "id": "662b80051afb9c00172dcaf6",
        "name": "Nguyễn Trãi - Nguyễn Cư Trinh",
        "lat": 10.7625269242757,
        "lng": 106.686580181122,
        "url": "https://giaothong.hochiminhcity.gov.vn:8007/Render/CameraHandler.ashx?id=662b80051afb9c00172dcaf6&bg=black&w=520&h=300",
        "status": "UP"
    },
    {
        "id": "589d0bceb3bf7600110283d6",
        "name": "Cầu Sài Gòn 2 (dạ cầu)",
        "lat": 10.7990303873734,
        "lng": 106.727387309074,
        "url": "https://giaothong.hochiminhcity.gov.vn:8007/Render/CameraHandler.ashx?id=589d0bceb3bf7600110283d6&bg=black&w=520&h=300",
        "status": "UP"
    },
    {
        "id": "5d8cd253766c88001718893a",
        "name": "Nguyễn Tri Phương - Hùng Vương",
        "lat": 10.7576520833075,
        "lng": 106.669279932976,
        "url": "https://giaothong.hochiminhcity.gov.vn:8007/Render/CameraHandler.ashx?id=5d8cd253766c88001718893a&bg=black&w=520&h=300",
        "status": "NOT_IMAGE"
    },
    {
        "id": "587ee2aeb807da0011e33d52",
        "name": "Phan Đăng Lưu - Phan Xích Long",
        "lat": 10.8020392090947,
        "lng": 106.683232784271,
        "url": "https://giaothong.hochiminhcity.gov.vn:8007/Render/CameraHandler.ashx?id=587ee2aeb807da0011e33d52&bg=black&w=520&h=300",
        "status": "UP"
    },
    {
        "id": "662b5bc31afb9c00172d92e2",
        "name": "Lê Trọng Tấn - Đường Kênh 19/5",
        "lat": 10.8093424582973,
        "lng": 106.615083217621,
        "url": "https://giaothong.hochiminhcity.gov.vn:8007/Render/CameraHandler.ashx?id=662b5bc31afb9c00172d92e2&bg=black&w=520&h=300",
        "status": "UP"
    },
    {
        "id": "662b58401afb9c00172d90f5",
        "name": "Hoàng Văn Thụ - Bùi Thị Xuân",
        "lat": 10.8006480938667,
        "lng": 106.661823391914,
        "url": "https://giaothong.hochiminhcity.gov.vn:8007/Render/CameraHandler.ashx?id=662b58401afb9c00172d90f5&bg=black&w=520&h=300",
        "status": "UP"
    },
    {
        "id": "5874644cb807da0011e33cd5",
        "name": "Cầu vượt Sóng Thần 1",
        "lat": 10.8758064874328,
        "lng": 106.750985383987,
        "url": "https://giaothong.hochiminhcity.gov.vn:8007/Render/CameraHandler.ashx?id=5874644cb807da0011e33cd5&bg=black&w=520&h=300",
        "status": "UP"
    },
    {
        "id": "662b867b1afb9c00172dd250",
        "name": "Trần Hưng Đạo - Ký Con",
        "lat": 10.7692988698081,
        "lng": 106.696676015854,
        "url": "https://giaothong.hochiminhcity.gov.vn:8007/Render/CameraHandler.ashx?id=662b867b1afb9c00172dd250&bg=black&w=520&h=300",
        "status": "UP"
    },
    {
        "id": "597bf0b8faa7ea0011c7c293",
        "name": "Cầu Phú Hữu 1",
        "lat": 10.8163926125139,
        "lng": 106.791679859161,
        "url": "https://giaothong.hochiminhcity.gov.vn:8007/Render/CameraHandler.ashx?id=597bf0b8faa7ea0011c7c293&bg=black&w=520&h=300",
        "status": "UP"
    },
    {
        "id": "5a10c79f02eb490011a0b0dd",
        "name": "Mai Chí Thọ - Tố Hữu (C6)",
        "lat": 10.7713172490313,
        "lng": 106.716717481613,
        "url": "https://giaothong.hochiminhcity.gov.vn:8007/Render/CameraHandler.ashx?id=5a10c79f02eb490011a0b0dd&bg=black&w=520&h=300",
        "status": "UP"
    },
    {
        "id": "68188af96dfb4b0018f8f8e4",
        "name": "Võ Trần Chí - Kênh 10 (1)",
        "lat": 10.7087675702381,
        "lng": 106.572275161743,
        "url": "https://giaothong.hochiminhcity.gov.vn:8007/Render/CameraHandler.ashx?id=68188af96dfb4b0018f8f8e4&bg=black&w=520&h=300",
        "status": "UP"
    },
    {
        "id": "662b83ff1afb9c00172dcffb",
        "name": "Lê Duẩn - Phạm Ngọc Thạch",
        "lat": 10.7805078178228,
        "lng": 106.698188781738,
        "url": "https://giaothong.hochiminhcity.gov.vn:8007/Render/CameraHandler.ashx?id=662b83ff1afb9c00172dcffb&bg=black&w=520&h=300",
        "status": "UP"
    },
    {
        "id": "5deb576d1dc17d7c5515ad19",
        "name": "Nguyễn Thị Minh Khai - Mạc Đĩnh Chi",
        "lat": 10.784426,
        "lng": 106.699659,
        "url": "https://giaothong.hochiminhcity.gov.vn:8007/Render/CameraHandler.ashx?id=5deb576d1dc17d7c5515ad19&bg=black&w=520&h=300",
        "status": "UP"
    },
    {
        "id": "5b6329fdfd4edb0019c7dc0b",
        "name": "Nguyễn Trãi - Nguyễn Văn Cừ",
        "lat": 10.7596494601112,
        "lng": 106.684375405312,
        "url": "https://giaothong.hochiminhcity.gov.vn:8007/Render/CameraHandler.ashx?id=5b6329fdfd4edb0019c7dc0b&bg=black&w=520&h=300",
        "status": "UP"
    },
    {
        "id": "589add0fb3bf7600110283ae",
        "name": "Tô Ký (Tỉnh lộ 15) - Đông Bắc",
        "lat": 10.8556133114939,
        "lng": 106.623339056969,
        "url": "https://giaothong.hochiminhcity.gov.vn:8007/Render/CameraHandler.ashx?id=589add0fb3bf7600110283ae&bg=black&w=520&h=300",
        "status": "UP"
    },
    {
        "id": "5deb576d1dc17d7c5515ad01",
        "name": "Võ Thị Sáu - Hai Bà Trưng",
        "lat": 10.7878590168447,
        "lng": 106.691815853119,
        "url": "https://giaothong.hochiminhcity.gov.vn:8007/Render/CameraHandler.ashx?id=5deb576d1dc17d7c5515ad01&bg=black&w=520&h=300",
        "status": "UP"
    },
    {
        "id": "58abbf72bd82540010390ba4",
        "name": "Cầu Sài Gòn 9 (Bình Thạnh - Thủ Đức)",
        "lat": 10.7985614089434,
        "lng": 106.726319789886,
        "url": "https://giaothong.hochiminhcity.gov.vn:8007/Render/CameraHandler.ashx?id=58abbf72bd82540010390ba4&bg=black&w=520&h=300",
        "status": "UP"
    },
    {
        "id": "6623f1f16f998a001b25281f",
        "name": "Phạm Văn Đồng - Đào Trinh Nhất",
        "lat": 10.865064709737,
        "lng": 106.759042739868,
        "url": "https://giaothong.hochiminhcity.gov.vn:8007/Render/CameraHandler.ashx?id=6623f1f16f998a001b25281f&bg=black&w=520&h=300",
        "status": "UP"
    },
    {
        "id": "58ad6961bd82540010390be5",
        "name": "Nút giao Phú Nhuận 1 (Phan Đình Phùng)",
        "lat": 10.7990461956223,
        "lng": 106.680378913879,
        "url": "https://giaothong.hochiminhcity.gov.vn:8007/Render/CameraHandler.ashx?id=58ad6961bd82540010390be5&bg=black&w=520&h=300",
        "status": "UP"
    },
    {
        "id": "59ca2fa302eb490011a0a3fd",
        "name": "QL1 - cầu Bình Thuận",
        "lat": 10.7877852422632,
        "lng": 106.595111489296,
        "url": "https://giaothong.hochiminhcity.gov.vn:8007/Render/CameraHandler.ashx?id=59ca2fa302eb490011a0a3fd&bg=black&w=520&h=300",
        "status": "NOT_IMAGE"
    },
    {
        "id": "5a8257e25058170011f6eacd",
        "name": "Hoàng Hữu Nam - Đường D400",
        "lat": 10.8700853140978,
        "lng": 106.814097762108,
        "url": "https://giaothong.hochiminhcity.gov.vn:8007/Render/CameraHandler.ashx?id=5a8257e25058170011f6eacd&bg=black&w=520&h=300",
        "status": "UP"
    },
    {
        "id": "5a606dbc8576340017d0662b",
        "name": "Điện Biên Phủ - Nguyễn Hữu Cảnh",
        "lat": 10.7978184191454,
        "lng": 106.721127033234,
        "url": "https://giaothong.hochiminhcity.gov.vn:8007/Render/CameraHandler.ashx?id=5a606dbc8576340017d0662b&bg=black&w=520&h=300",
        "status": "UP"
    },
    {
        "id": "662b52a31afb9c00172d8b01",
        "name": "Lê Đức Thọ - Hẻm 688",
        "lat": 10.846467192202,
        "lng": 106.670604944229,
        "url": "https://giaothong.hochiminhcity.gov.vn:8007/Render/CameraHandler.ashx?id=662b52a31afb9c00172d8b01&bg=black&w=520&h=300",
        "status": "UP"
    },
    {
        "id": "58abbee5bd82540010390ba2",
        "name": "Cầu Sài Gòn 5 (dạ cầu Thủ Đức)",
        "lat": 10.7991621227557,
        "lng": 106.729398965836,
        "url": "https://giaothong.hochiminhcity.gov.vn:8007/Render/CameraHandler.ashx?id=58abbee5bd82540010390ba2&bg=black&w=520&h=300",
        "status": "UP"
    },
    {
        "id": "662a8ef41afb9c00172d2af2",
        "name": "Lê Văn Lương - Đường số 15",
        "lat": 10.7449876687987,
        "lng": 106.704325675964,
        "url": "https://giaothong.hochiminhcity.gov.vn:8007/Render/CameraHandler.ashx?id=662a8ef41afb9c00172d2af2&bg=black&w=520&h=300",
        "status": "UP"
    },
    {
        "id": "6623f5b56f998a001b25292f",
        "name": "Võ Nguyên Giáp - quay đầu An Phú (2)",
        "lat": 10.8022710610062,
        "lng": 106.746608018875,
        "url": "https://giaothong.hochiminhcity.gov.vn:8007/Render/CameraHandler.ashx?id=6623f5b56f998a001b25292f&bg=black&w=520&h=300",
        "status": "UP"
    },
    {
        "id": "66b1c398779f7400186740e3",
        "name": "Ba Tháng Hai - Tạ Uyên",
        "lat": 10.7601975506409,
        "lng": 106.653256416321,
        "url": "https://giaothong.hochiminhcity.gov.vn:8007/Render/CameraHandler.ashx?id=66b1c398779f7400186740e3&bg=black&w=520&h=300",
        "status": "UP"
    },
    {
        "id": "58d7b756c1e33c00112b320d",
        "name": "Nút giao Chợ Đệm 2 (CT Trung Lương - Bùi Thanh Khiết)",
        "lat": 10.6860698233787,
        "lng": 106.57566010952,
        "url": "https://giaothong.hochiminhcity.gov.vn:8007/Render/CameraHandler.ashx?id=58d7b756c1e33c00112b320d&bg=black&w=520&h=300",
        "status": "UP"
    },
    {
        "id": "6623e31e6f998a001b252250",
        "name": "Kỳ Đồng - Bà Huyện Thanh Quan",
        "lat": 10.7816671586319,
        "lng": 106.681677103043,
        "url": "https://giaothong.hochiminhcity.gov.vn:8007/Render/CameraHandler.ashx?id=6623e31e6f998a001b252250&bg=black&w=520&h=300",
        "status": "UP"
    },
    {
        "id": "5deb576d1dc17d7c5515acfe",
        "name": "Lý Chính Thắng - Trương Định",
        "lat": 10.7825155824841,
        "lng": 106.683688759804,
        "url": "https://giaothong.hochiminhcity.gov.vn:8007/Render/CameraHandler.ashx?id=5deb576d1dc17d7c5515acfe&bg=black&w=520&h=300",
        "status": "UP"
    },
    {
        "id": "6792f3cf8c5ed4001b27f61e",
        "name": "Tỉnh Lộ 8 - Cầu Phú Cường",
        "lat": 10.9771309811361,
        "lng": 106.643643379211,
        "url": "https://giaothong.hochiminhcity.gov.vn:8007/Render/CameraHandler.ashx?id=6792f3cf8c5ed4001b27f61e&bg=black&w=520&h=300",
        "status": "UP"
    },
    {
        "id": "58df4e22dc195800111e04bb",
        "name": "Yên Thế - Bạch Đằng",
        "lat": 10.8141637700114,
        "lng": 106.668593287468,
        "url": "https://giaothong.hochiminhcity.gov.vn:8007/Render/CameraHandler.ashx?id=58df4e22dc195800111e04bb&bg=black&w=520&h=300",
        "status": "UP"
    },
    {
        "id": "58d7b3e8c1e33c00112b3207",
        "name": "Quốc lộ 1 - Nguyễn Văn Linh",
        "lat": 10.6901498501196,
        "lng": 106.595363616943,
        "url": "https://giaothong.hochiminhcity.gov.vn:8007/Render/CameraHandler.ashx?id=58d7b3e8c1e33c00112b3207&bg=black&w=520&h=300",
        "status": "NOT_IMAGE"
    },
    {
        "id": "58e49e3dd9d6200011e0b9d1",
        "name": "Nam Kỳ Khởi Nghĩa - Lý Chính Thắng",
        "lat": 10.7886020312638,
        "lng": 106.6847884655,
        "url": "https://giaothong.hochiminhcity.gov.vn:8007/Render/CameraHandler.ashx?id=58e49e3dd9d6200011e0b9d1&bg=black&w=520&h=300",
        "status": "UP"
    },
    {
        "id": "5d8cdc57766c88001718896e",
        "name": "Lý Thường Kiệt - Lạc Long Quân",
        "lat": 10.7904463853615,
        "lng": 106.652473211288,
        "url": "https://giaothong.hochiminhcity.gov.vn:8007/Render/CameraHandler.ashx?id=5d8cdc57766c88001718896e&bg=black&w=520&h=300",
        "status": "UP"
    },
    {
        "id": "66f1266f538c780017c93579",
        "name": "Hùng Vương - Nguyễn Chí Thanh",
        "lat": 10.760766720521,
        "lng": 106.67405962944,
        "url": "https://giaothong.hochiminhcity.gov.vn:8007/Render/CameraHandler.ashx?id=66f1266f538c780017c93579&bg=black&w=520&h=300",
        "status": "UP"
    },
    {
        "id": "5ad0679598d8fc001102e274",
        "name": "Lê Văn Việt - Man Thiện",
        "lat": 10.8452343413582,
        "lng": 106.786707043648,
        "url": "https://giaothong.hochiminhcity.gov.vn:8007/Render/CameraHandler.ashx?id=5ad0679598d8fc001102e274&bg=black&w=520&h=300",
        "status": "UP"
    },
    {
        "id": "5a824b6c5058170011f6eaab",
        "name": "Nút giao Bốn Xã 3 (Lê Văn Quới)",
        "lat": 10.773841521503,
        "lng": 106.621397137642,
        "url": "https://giaothong.hochiminhcity.gov.vn:8007/Render/CameraHandler.ashx?id=5a824b6c5058170011f6eaab&bg=black&w=520&h=300",
        "status": "NOT_IMAGE"
    },
    {
        "id": "58175ac4edeb6c0012a2d5bb",
        "name": "Mai Chí Thọ - Đồng Văn Cống 1",
        "lat": 10.7878800952932,
        "lng": 106.749606728554,
        "url": "https://giaothong.hochiminhcity.gov.vn:8007/Render/CameraHandler.ashx?id=58175ac4edeb6c0012a2d5bb&bg=black&w=520&h=300",
        "status": "UP"
    },
    {
        "id": "6623f0576f998a001b2527ac",
        "name": "Âu Cơ - Thoại Ngọc Hầu",
        "lat": 10.7859250629045,
        "lng": 106.641583442688,
        "url": "https://giaothong.hochiminhcity.gov.vn:8007/Render/CameraHandler.ashx?id=6623f0576f998a001b2527ac&bg=black&w=520&h=300",
        "status": "UP"
    },
    {
        "id": "62da3e840637a10017d7073d",
        "name": "Quốc Lộ 13 - Đinh Thị Thi 3",
        "lat": 10.8451078948305,
        "lng": 106.71789765358,
        "url": "https://giaothong.hochiminhcity.gov.vn:8007/Render/CameraHandler.ashx?id=62da3e840637a10017d7073d&bg=black&w=520&h=300",
        "status": "UP"
    },
    {
        "id": "56de42f611f398ec0c481288",
        "name": "Võ Văn Kiệt - Cầu Ông Lãnh 1",
        "lat": 10.7637917349984,
        "lng": 106.697652339935,
        "url": "https://giaothong.hochiminhcity.gov.vn:8007/Render/CameraHandler.ashx?id=56de42f611f398ec0c481288&bg=black&w=520&h=300",
        "status": "UP"
    },
    {
        "id": "5d8cd614766c88001718894a",
        "name": "Lê Quang Định - Nơ Trang Long",
        "lat": 10.8081937627675,
        "lng": 106.69519007206,
        "url": "https://giaothong.hochiminhcity.gov.vn:8007/Render/CameraHandler.ashx?id=5d8cd614766c88001718894a&bg=black&w=520&h=300",
        "status": "UP"
    },
    {
        "id": "5a824f975058170011f6eab8",
        "name": "Nguyễn Oanh - Phan Văn Trị (2)",
        "lat": 10.8310719980749,
        "lng": 106.676913499832,
        "url": "https://giaothong.hochiminhcity.gov.vn:8007/Render/CameraHandler.ashx?id=5a824f975058170011f6eab8&bg=black&w=520&h=300",
        "status": "UP"
    },
    {
        "id": "5a824c3e5058170011f6eaae",
        "name": "Nút giao Bốn Xã 1 (Bình Long)",
        "lat": 10.7738836803625,
        "lng": 106.621649265289,
        "url": "https://giaothong.hochiminhcity.gov.vn:8007/Render/CameraHandler.ashx?id=5a824c3e5058170011f6eaae&bg=black&w=520&h=300",
        "status": "UP"
    },
    {
        "id": "5deb576d1dc17d7c5515acf9",
        "name": "Nút giao Công Trường Dân Chủ",
        "lat": 10.777768,
        "lng": 106.68202,
        "url": "https://giaothong.hochiminhcity.gov.vn:8007/Render/CameraHandler.ashx?id=5deb576d1dc17d7c5515acf9&bg=black&w=520&h=300",
        "status": "UP"
    },
    {
        "id": "587470c2b807da0011e33ce4",
        "name": "Nguyễn Hữu Cảnh - Ngô Tất Tố (Cầu Thủ Thiêm 1)",
        "lat": 10.7892027649838,
        "lng": 106.715097427368,
        "url": "https://giaothong.hochiminhcity.gov.vn:8007/Render/CameraHandler.ashx?id=587470c2b807da0011e33ce4&bg=black&w=520&h=300",
        "status": "UP"
    },
    {
        "id": "68188cbf6dfb4b0018f900e9",
        "name": "Võ Văn Vân - Liên Ấp 123",
        "lat": 10.7939137404315,
        "lng": 106.576459407806,
        "url": "https://giaothong.hochiminhcity.gov.vn:8007/Render/CameraHandler.ashx?id=68188cbf6dfb4b0018f900e9&bg=black&w=520&h=300",
        "status": "UP"
    },
    {
        "id": "67e217ea3215f90017863bf1",
        "name": "Nguyễn Thị Định - Đường C (20-2)",
        "lat": 10.7660631109292,
        "lng": 106.779545545578,
        "url": "https://giaothong.hochiminhcity.gov.vn:8007/Render/CameraHandler.ashx?id=67e217ea3215f90017863bf1&bg=black&w=520&h=300",
        "status": "UP"
    },
    {
        "id": "68ede6d0230ee50017d04d4c",
        "name": "Đại lộ Bình Dương - ngã tư chợ Đình (1)",
        "lat": 10.9846089851621,
        "lng": 106.66610956192,
        "url": "https://giaothong.hochiminhcity.gov.vn:8007/Render/CameraHandler.ashx?id=68ede6d0230ee50017d04d4c&bg=black&w=520&h=300",
        "status": "UP"
    },
    {
        "id": "584e734a61cfea0012cf694f",
        "name": "Quốc lộ 1 - Lê Trọng Tấn",
        "lat": 10.8162345391232,
        "lng": 106.60130739212,
        "url": "https://giaothong.hochiminhcity.gov.vn:8007/Render/CameraHandler.ashx?id=584e734a61cfea0012cf694f&bg=black&w=520&h=300",
        "status": "UP"
    },
    {
        "id": "662b7f251afb9c00172dc8bc",
        "name": "Nam Kỳ Khởi Nghĩa - Nguyễn Du",
        "lat": 10.7767873576075,
        "lng": 106.697995662689,
        "url": "https://giaothong.hochiminhcity.gov.vn:8007/Render/CameraHandler.ashx?id=662b7f251afb9c00172dc8bc&bg=black&w=520&h=300",
        "status": "UP"
    },
    {
        "id": "6623ec826f998a001b252686",
        "name": "Nguyễn Oanh - Lê Đức Thọ",
        "lat": 10.8419361769392,
        "lng": 106.676613092422,
        "url": "https://giaothong.hochiminhcity.gov.vn:8007/Render/CameraHandler.ashx?id=6623ec826f998a001b252686&bg=black&w=520&h=300",
        "status": "UP"
    },
    {
        "id": "5deb576d1dc17d7c5515ad23",
        "name": "Ba Tháng Hai - Lý Thường Kiệt",
        "lat": 10.763649,
        "lng": 106.659903,
        "url": "https://giaothong.hochiminhcity.gov.vn:8007/Render/CameraHandler.ashx?id=5deb576d1dc17d7c5515ad23&bg=black&w=520&h=300",
        "status": "UP"
    },
    {
        "id": "6922939144912200174bc80c",
        "name": "Quốc Lộ 51 - đường vào cảng Cái Mép",
        "lat": 10.563928386027,
        "lng": 107.059192657471,
        "url": "https://giaothong.hochiminhcity.gov.vn:8007/Render/CameraHandler.ashx?id=6922939144912200174bc80c&bg=black&w=520&h=300",
        "status": "UP"
    },
    {
        "id": "595d9ba43dcfc400106f2880",
        "name": "Quốc lộ 1 - An Phú Đông 12 (2)",
        "lat": 10.8591062543837,
        "lng": 106.705430746078,
        "url": "https://giaothong.hochiminhcity.gov.vn:8007/Render/CameraHandler.ashx?id=595d9ba43dcfc400106f2880&bg=black&w=520&h=300",
        "status": "NOT_IMAGE"
    },
    {
        "id": "5deb576d1dc17d7c5515ad0d",
        "name": "Lê Lợi - Pasteur",
        "lat": 10.774816,
        "lng": 106.700909,
        "url": "https://giaothong.hochiminhcity.gov.vn:8007/Render/CameraHandler.ashx?id=5deb576d1dc17d7c5515ad0d&bg=black&w=520&h=300",
        "status": "NOT_IMAGE"
    },
    {
        "id": "587efb60b807da0011e33d5d",
        "name": "Phạm Văn Đồng - Lê Quang Định 1",
        "lat": 10.8192748027252,
        "lng": 106.689192652702,
        "url": "https://giaothong.hochiminhcity.gov.vn:8007/Render/CameraHandler.ashx?id=587efb60b807da0011e33d5d&bg=black&w=520&h=300",
        "status": "UP"
    },
    {
        "id": "6818863c6dfb4b0018f8f235",
        "name": "Trần Đại Nghĩa - Mai Bá Hương",
        "lat": 10.7650143803183,
        "lng": 106.498975753784,
        "url": "https://giaothong.hochiminhcity.gov.vn:8007/Render/CameraHandler.ashx?id=6818863c6dfb4b0018f8f235&bg=black&w=520&h=300",
        "status": "UP"
    },
    {
        "id": "589ad89eb3bf7600110283ac",
        "name": "Tô Ký (Tỉnh lộ 15) - Hẻm 146",
        "lat": 10.8486167661312,
        "lng": 106.633611917496,
        "url": "https://giaothong.hochiminhcity.gov.vn:8007/Render/CameraHandler.ashx?id=589ad89eb3bf7600110283ac&bg=black&w=520&h=300",
        "status": "UP"
    },
    {
        "id": "662b5adc1afb9c00172d925b",
        "name": "Trường Chinh - Phan Huy Ích 1",
        "lat": 10.8235795946401,
        "lng": 106.629202365875,
        "url": "https://giaothong.hochiminhcity.gov.vn:8007/Render/CameraHandler.ashx?id=662b5adc1afb9c00172d925b&bg=black&w=520&h=300",
        "status": "UP"
    },
    {
        "id": "5701e22bc4350a1100e26f6c",
        "name": "Nguyễn Công Trứ - Calmette 1",
        "lat": 10.7671171078657,
        "lng": 106.699680089951,
        "url": "https://giaothong.hochiminhcity.gov.vn:8007/Render/CameraHandler.ashx?id=5701e22bc4350a1100e26f6c&bg=black&w=520&h=300",
        "status": "UP"
    },
    {
        "id": "5b87c386ca057700116404a6",
        "name": "Đường hầm (Đầu hầm Tp Thủ Đức)",
        "lat": 10.7710432140034,
        "lng": 106.715902090073,
        "url": "https://giaothong.hochiminhcity.gov.vn:8007/Render/CameraHandler.ashx?id=5b87c386ca057700116404a6&bg=black&w=520&h=300",
        "status": "UP"
    },
    {
        "id": "5d8cd542766c880017188948",
        "name": "Võ Văn Ngân - Đặng Văn Bi",
        "lat": 10.8511456568495,
        "lng": 106.757980585098,
        "url": "https://giaothong.hochiminhcity.gov.vn:8007/Render/CameraHandler.ashx?id=5d8cd542766c880017188948&bg=black&w=520&h=300",
        "status": "UP"
    },
    {
        "id": "6623e8406f998a001b252465",
        "name": "Phan Đăng Lưu - Hoàng Hoa Thám",
        "lat": 10.8031773894881,
        "lng": 106.692352294922,
        "url": "https://giaothong.hochiminhcity.gov.vn:8007/Render/CameraHandler.ashx?id=6623e8406f998a001b252465&bg=black&w=520&h=300",
        "status": "UP"
    },
    {
        "id": "5875cef0b807da0011e33d14",
        "name": "Trường Chinh - Phạm Văn Bạch 2",
        "lat": 10.8134629721378,
        "lng": 106.632796525955,
        "url": "https://giaothong.hochiminhcity.gov.vn:8007/Render/CameraHandler.ashx?id=5875cef0b807da0011e33d14&bg=black&w=520&h=300",
        "status": "UP"
    },
    {
        "id": "68188a816dfb4b0018f8f769",
        "name": "Võ Trần Chí - Thế Lữ 1",
        "lat": 10.702737493872,
        "lng": 106.570858955383,
        "url": "https://giaothong.hochiminhcity.gov.vn:8007/Render/CameraHandler.ashx?id=68188a816dfb4b0018f8f769&bg=black&w=520&h=300",
        "status": "UP"
    },
    {
        "id": "5a823d555058170011f6eaa2",
        "name": "Lý Tự Trọng - Hai Bà Trưng 1",
        "lat": 10.7791113331904,
        "lng": 106.702115535736,
        "url": "https://giaothong.hochiminhcity.gov.vn:8007/Render/CameraHandler.ashx?id=5a823d555058170011f6eaa2&bg=black&w=520&h=300",
        "status": "UP"
    },
    {
        "id": "595da2853dcfc400106f2883",
        "name": "Quốc lộ 1 - Đường 15 (1)",
        "lat": 10.8601019727034,
        "lng": 106.698827147484,
        "url": "https://giaothong.hochiminhcity.gov.vn:8007/Render/CameraHandler.ashx?id=595da2853dcfc400106f2883&bg=black&w=520&h=300",
        "status": "UP"
    },
    {
        "id": "587c8183b807da0011e33d3f",
        "name": "Hoàng Văn Thụ - Trần Quốc Hoàn",
        "lat": 10.8013067666529,
        "lng": 106.662268638611,
        "url": "https://giaothong.hochiminhcity.gov.vn:8007/Render/CameraHandler.ashx?id=587c8183b807da0011e33d3f&bg=black&w=520&h=300",
        "status": "UP"
    },
    {
        "id": "5b632950fd4edb0019c7dc07",
        "name": "Nguyễn Văn Cừ - Trần Hưng Đạo 3",
        "lat": 10.7568773715932,
        "lng": 106.684874296188,
        "url": "https://giaothong.hochiminhcity.gov.vn:8007/Render/CameraHandler.ashx?id=5b632950fd4edb0019c7dc07&bg=black&w=520&h=300",
        "status": "UP"
    },
    {
        "id": "5deb576d1dc17d7c5515ad06",
        "name": "Đinh Tiên Hoàng - Nguyễn Đình Chiểu",
        "lat": 10.788566,
        "lng": 106.699558,
        "url": "https://giaothong.hochiminhcity.gov.vn:8007/Render/CameraHandler.ashx?id=5deb576d1dc17d7c5515ad06&bg=black&w=520&h=300",
        "status": "UP"
    },
    {
        "id": "662b54711afb9c00172d8d4f",
        "name": "90 Nguyễn Thái Sơn",
        "lat": 10.8160870038835,
        "lng": 106.680099964142,
        "url": "https://giaothong.hochiminhcity.gov.vn:8007/Render/CameraHandler.ashx?id=662b54711afb9c00172d8d4f&bg=black&w=520&h=300",
        "status": "UP"
    },
    {
        "id": "5a8279865058170011f6eaef",
        "name": "Nguyễn Văn Linh - Phạm Hùng 2",
        "lat": 10.7275738904052,
        "lng": 106.677889823914,
        "url": "https://giaothong.hochiminhcity.gov.vn:8007/Render/CameraHandler.ashx?id=5a8279865058170011f6eaef&bg=black&w=520&h=300",
        "status": "UP"
    },
    {
        "id": "662b4faa1afb9c00172d875e",
        "name": "Tháp Mười - Phạm Đình Hổ",
        "lat": 10.7497256871815,
        "lng": 106.649479866028,
        "url": "https://giaothong.hochiminhcity.gov.vn:8007/Render/CameraHandler.ashx?id=662b4faa1afb9c00172d875e&bg=black&w=520&h=300",
        "status": "UP"
    },
    {
        "id": "662a87641afb9c00172d24b0",
        "name": "Võ Trần Chí - Trần Văn Giàu 2",
        "lat": 10.7492250102216,
        "lng": 106.580879688263,
        "url": "https://giaothong.hochiminhcity.gov.vn:8007/Render/CameraHandler.ashx?id=662a87641afb9c00172d24b0&bg=black&w=520&h=300",
        "status": "UP"
    },
    {
        "id": "56de42f611f398ec0c4812a1",
        "name": "Nút giao Mỹ Thủy 1",
        "lat": 10.769926,
        "lng": 106.7747069,
        "url": "https://giaothong.hochiminhcity.gov.vn:8007/Render/CameraHandler.ashx?id=56de42f611f398ec0c4812a1&bg=black&w=520&h=300",
        "status": "UP"
    },
    {
        "id": "63ae7669bfd3d90017e8f0d9",
        "name": "Khánh Hội - Cầu Kênh Tẻ",
        "lat": 10.7528720275909,
        "lng": 106.702179908752,
        "url": "https://giaothong.hochiminhcity.gov.vn:8007/Render/CameraHandler.ashx?id=63ae7669bfd3d90017e8f0d9&bg=black&w=520&h=300",
        "status": "UP"
    },
    {
        "id": "63b65e6abfd3d90017eaa361",
        "name": "Nguyễn Thị Định - Thân Văn Nhiếp",
        "lat": 10.7903304548658,
        "lng": 106.754236221313,
        "url": "https://giaothong.hochiminhcity.gov.vn:8007/Render/CameraHandler.ashx?id=63b65e6abfd3d90017eaa361&bg=black&w=520&h=300",
        "status": "UP"
    },
    {
        "id": "662a8fd41afb9c00172d2bac",
        "name": "Nguyễn Lương Bằng - Phạm Hữu Lầu",
        "lat": 10.7045402040992,
        "lng": 106.732370853424,
        "url": "https://giaothong.hochiminhcity.gov.vn:8007/Render/CameraHandler.ashx?id=662a8fd41afb9c00172d2bac&bg=black&w=520&h=300",
        "status": "UP"
    },
    {
        "id": "56f11afc3ac17b11001c504e",
        "name": "Trường Sơn - Phan Đình Giót",
        "lat": 10.8048741133609,
        "lng": 106.664215922356,
        "url": "https://giaothong.hochiminhcity.gov.vn:8007/Render/CameraHandler.ashx?id=56f11afc3ac17b11001c504e&bg=black&w=520&h=300",
        "status": "UP"
    },
    {
        "id": "585b2b1ec3f96200127dc505",
        "name": "Nguyễn Văn Linh - Huỳnh Tấn Phát 1",
        "lat": 10.7528825680397,
        "lng": 106.728594303131,
        "url": "https://giaothong.hochiminhcity.gov.vn:8007/Render/CameraHandler.ashx?id=585b2b1ec3f96200127dc505&bg=black&w=520&h=300",
        "status": "UP"
    },
    {
        "id": "5a825b7d5058170011f6ead4",
        "name": "Nguyễn Văn Linh - Nguyễn Hữu Thọ (3)",
        "lat": 10.7282010989927,
        "lng": 106.700441837311,
        "url": "https://giaothong.hochiminhcity.gov.vn:8007/Render/CameraHandler.ashx?id=5a825b7d5058170011f6ead4&bg=black&w=520&h=300",
        "status": "UP"
    },
    {
        "id": "5a6069238576340017d0661c",
        "name": "Bạch Đằng - Lê Quang Định",
        "lat": 10.8026188385378,
        "lng": 106.698435544968,
        "url": "https://giaothong.hochiminhcity.gov.vn:8007/Render/CameraHandler.ashx?id=5a6069238576340017d0661c&bg=black&w=520&h=300",
        "status": "UP"
    },
    {
        "id": "662b857b1afb9c00172dd106",
        "name": "Điện Biên Phủ - Nguyễn Bỉnh Khiêm",
        "lat": 10.7920852162229,
        "lng": 106.699739098549,
        "url": "https://giaothong.hochiminhcity.gov.vn:8007/Render/CameraHandler.ashx?id=662b857b1afb9c00172dd106&bg=black&w=520&h=300",
        "status": "UP"
    },
    {
        "id": "56de42f611f398ec0c481298",
        "name": "Võ Văn Kiệt - An Dương Vương 1",
        "lat": 10.7263616348268,
        "lng": 106.61993265152,
        "url": "https://giaothong.hochiminhcity.gov.vn:8007/Render/CameraHandler.ashx?id=56de42f611f398ec0c481298&bg=black&w=520&h=300",
        "status": "UP"
    },
    {
        "id": "63ae75f9bfd3d90017e8f097",
        "name": "Cao Thắng – Võ Văn Tần 2",
        "lat": 10.769072262419,
        "lng": 106.683275699615,
        "url": "https://giaothong.hochiminhcity.gov.vn:8007/Render/CameraHandler.ashx?id=63ae75f9bfd3d90017e8f097&bg=black&w=520&h=300",
        "status": "UP"
    },
    {
        "id": "63ae7829bfd3d90017e8f1ac",
        "name": "Nguyễn Tất Thành - Cầu Tân Thuận 1",
        "lat": 10.7564346782916,
        "lng": 106.719351410866,
        "url": "https://giaothong.hochiminhcity.gov.vn:8007/Render/CameraHandler.ashx?id=63ae7829bfd3d90017e8f1ac&bg=black&w=520&h=300",
        "status": "UP"
    },
    {
        "id": "65e0556b6b18080018db665e",
        "name": "Nguyễn Thái Học - Phạm Ngũ Lão",
        "lat": 10.7689774034613,
        "lng": 106.694637537003,
        "url": "https://giaothong.hochiminhcity.gov.vn:8007/Render/CameraHandler.ashx?id=65e0556b6b18080018db665e&bg=black&w=520&h=300",
        "status": "UP"
    },
    {
        "id": "662b81eb1afb9c00172dcc85",
        "name": "Nguyễn Thị Minh Khai - Nguyễn Bỉnh Khiêm 2",
        "lat": 10.7882331590867,
        "lng": 106.703939437866,
        "url": "https://giaothong.hochiminhcity.gov.vn:8007/Render/CameraHandler.ashx?id=662b81eb1afb9c00172dcc85&bg=black&w=520&h=300",
        "status": "UP"
    },
    {
        "id": "595dd9ac3dcfc400106f28b4",
        "name": "Quốc lộ 1 - BQB Trước UBND Q12 (hướng đi An Sương)",
        "lat": 10.8619827649163,
        "lng": 106.653299331665,
        "url": "https://giaothong.hochiminhcity.gov.vn:8007/Render/CameraHandler.ashx?id=595dd9ac3dcfc400106f28b4&bg=black&w=520&h=300",
        "status": "UP"
    },
    {
        "id": "63b54d27bfd3d90017ea7ae5",
        "name": "Xa lộ Hà Nội - Đường D1",
        "lat": 10.8581948267685,
        "lng": 106.787774562836,
        "url": "https://giaothong.hochiminhcity.gov.vn:8007/Render/CameraHandler.ashx?id=63b54d27bfd3d90017ea7ae5&bg=black&w=520&h=300",
        "status": "UP"
    },
    {
        "id": "662a8cc51afb9c00172d2938",
        "name": "Huỳnh Tấn Phát - Phú Thuận",
        "lat": 10.7307995207108,
        "lng": 106.732006072998,
        "url": "https://giaothong.hochiminhcity.gov.vn:8007/Render/CameraHandler.ashx?id=662a8cc51afb9c00172d2938&bg=black&w=520&h=300",
        "status": "UP"
    },
    {
        "id": "587654d3b807da0011e33d36",
        "name": "Võ Chí Công - Đường số 2",
        "lat": 10.7625480044979,
        "lng": 106.767582893372,
        "url": "https://giaothong.hochiminhcity.gov.vn:8007/Render/CameraHandler.ashx?id=587654d3b807da0011e33d36&bg=black&w=520&h=300",
        "status": "UP"
    },
    {
        "id": "5990ffdbbec3b90016d2ad2d",
        "name": "Đường hầm (Đầu hầm Tp Thủ Đức)",
        "lat": 10.7705847317646,
        "lng": 106.713402271271,
        "url": "https://giaothong.hochiminhcity.gov.vn:8007/Render/CameraHandler.ashx?id=5990ffdbbec3b90016d2ad2d&bg=black&w=520&h=300",
        "status": "UP"
    },
    {
        "id": "5a8259035058170011f6eacf",
        "name": "Nguyễn Văn Linh - Nguyễn Hữu Thọ (1)",
        "lat": 10.7291234621994,
        "lng": 106.700549125671,
        "url": "https://giaothong.hochiminhcity.gov.vn:8007/Render/CameraHandler.ashx?id=5a8259035058170011f6eacf&bg=black&w=520&h=300",
        "status": "NOT_IMAGE"
    },
    {
        "id": "58744f1fb807da0011e33cbd",
        "name": "Hưng Phú - Chánh Hưng 1",
        "lat": 10.7459679545654,
        "lng": 106.668984889984,
        "url": "https://giaothong.hochiminhcity.gov.vn:8007/Render/CameraHandler.ashx?id=58744f1fb807da0011e33cbd&bg=black&w=520&h=300",
        "status": "UP"
    },
    {
        "id": "63b54cffbfd3d90017ea7ad0",
        "name": "Tỉnh lộ 43 - Chân cầu Gò Dưa",
        "lat": 10.8730512767713,
        "lng": 106.732392311096,
        "url": "https://giaothong.hochiminhcity.gov.vn:8007/Render/CameraHandler.ashx?id=63b54cffbfd3d90017ea7ad0&bg=black&w=520&h=300",
        "status": "UP"
    },
    {
        "id": "589b4644b3bf7600110283ce",
        "name": "Hà Huy Giáp - Cầu Phú Long 1",
        "lat": 10.892943009858,
        "lng": 106.687889099121,
        "url": "https://giaothong.hochiminhcity.gov.vn:8007/Render/CameraHandler.ashx?id=589b4644b3bf7600110283ce&bg=black&w=520&h=300",
        "status": "UP"
    },
    {
        "id": "5d8cd8e2766c880017188958",
        "name": "Phạm Văn Đồng - Hiệp Bình (hướng đi Sân bay)",
        "lat": 10.8374050930507,
        "lng": 106.732848286629,
        "url": "https://giaothong.hochiminhcity.gov.vn:8007/Render/CameraHandler.ashx?id=5d8cd8e2766c880017188958&bg=black&w=520&h=300",
        "status": "UP"
    },
    {
        "id": "63b54fe4bfd3d90017ea7ca2",
        "name": "Nút giao Mỹ Thủy (5)",
        "lat": 10.7681342114135,
        "lng": 106.773290634155,
        "url": "https://giaothong.hochiminhcity.gov.vn:8007/Render/CameraHandler.ashx?id=63b54fe4bfd3d90017ea7ca2&bg=black&w=520&h=300",
        "status": "NOT_IMAGE"
    },
    {
        "id": "63b54938bfd3d90017ea77f6",
        "name": "Nguyễn Duy Trinh - Lã Xuân Oai",
        "lat": 10.8055485847835,
        "lng": 106.817160844803,
        "url": "https://giaothong.hochiminhcity.gov.vn:8007/Render/CameraHandler.ashx?id=63b54938bfd3d90017ea77f6&bg=black&w=520&h=300",
        "status": "UP"
    },
    {
        "id": "6623ebd76f998a001b25264d",
        "name": "Quốc Lộ 1 - Tô Ký",
        "lat": 10.8522309658882,
        "lng": 106.626455783844,
        "url": "https://giaothong.hochiminhcity.gov.vn:8007/Render/CameraHandler.ashx?id=6623ebd76f998a001b25264d&bg=black&w=520&h=300",
        "status": "UP"
    },
    {
        "id": "5a6086e88576340017d0668a",
        "name": "QL1-Cty Pouyuen (1)",
        "lat": 10.7485662234825,
        "lng": 106.594237089157,
        "url": "https://giaothong.hochiminhcity.gov.vn:8007/Render/CameraHandler.ashx?id=5a6086e88576340017d0668a&bg=black&w=520&h=300",
        "status": "UP"
    },
    {
        "id": "681888b66dfb4b0018f8f58c",
        "name": "VX Trần Văn Giàu - Tỉnh Lộ 10",
        "lat": 10.7617627652255,
        "lng": 106.5702688694,
        "url": "https://giaothong.hochiminhcity.gov.vn:8007/Render/CameraHandler.ashx?id=681888b66dfb4b0018f8f58c&bg=black&w=520&h=300",
        "status": "UP"
    },
    {
        "id": "5b6c15b8ca0577001163fe39",
        "name": "Nguyễn Hữu Cảnh 3 (Hầm chui)",
        "lat": 10.7911261587324,
        "lng": 106.718181967735,
        "url": "https://giaothong.hochiminhcity.gov.vn:8007/Render/CameraHandler.ashx?id=5b6c15b8ca0577001163fe39&bg=black&w=520&h=300",
        "status": "NOT_IMAGE"
    },
    {
        "id": "586e2995f9fab7001111b0b5",
        "name": "Ung Văn Khiêm - Nguyễn Gia Trí (D2)",
        "lat": 10.8075192972885,
        "lng": 106.716395616531,
        "url": "https://giaothong.hochiminhcity.gov.vn:8007/Render/CameraHandler.ashx?id=586e2995f9fab7001111b0b5&bg=black&w=520&h=300",
        "status": "UP"
    },
    {
        "id": "5d8cd98d766c88001718895a",
        "name": "Phạm Văn Đồng - Tô Ngọc Vân (hướng đi Bình Dương)",
        "lat": 10.8533952979021,
        "lng": 106.751462817192,
        "url": "https://giaothong.hochiminhcity.gov.vn:8007/Render/CameraHandler.ashx?id=5d8cd98d766c88001718895a&bg=black&w=520&h=300",
        "status": "UP"
    },
    {
        "id": "6623ee666f998a001b252726",
        "name": "Quang Trung - Phan Huy Ích",
        "lat": 10.8442965283387,
        "lng": 106.640124320984,
        "url": "https://giaothong.hochiminhcity.gov.vn:8007/Render/CameraHandler.ashx?id=6623ee666f998a001b252726&bg=black&w=520&h=300",
        "status": "UP"
    },
    {
        "id": "662b84c11afb9c00172dd0b5",
        "name": "Nguyễn Thị Minh Khai - Phạm Ngọc Thạch",
        "lat": 10.7817830924671,
        "lng": 106.696933507919,
        "url": "https://giaothong.hochiminhcity.gov.vn:8007/Render/CameraHandler.ashx?id=662b84c11afb9c00172dd0b5&bg=black&w=520&h=300",
        "status": "UP"
    },
    {
        "id": "662b51201afb9c00172d889a",
        "name": "Hương Lộ 2 - Mã Lò",
        "lat": 10.7654465210122,
        "lng": 106.60413980484,
        "url": "https://giaothong.hochiminhcity.gov.vn:8007/Render/CameraHandler.ashx?id=662b51201afb9c00172d889a&bg=black&w=520&h=300",
        "status": "UP"
    },
    {
        "id": "56df8198c062921100c143dd",
        "name": "Nút giao Thủ Đức (Võ Văn Ngân)",
        "lat": 10.8492753334826,
        "lng": 106.773784160614,
        "url": "https://giaothong.hochiminhcity.gov.vn:8007/Render/CameraHandler.ashx?id=56df8198c062921100c143dd&bg=black&w=520&h=300",
        "status": "UP"
    },
    {
        "id": "56de42f611f398ec0c481282",
        "name": "Mai Chí Thọ - Đồng Văn Cống 2",
        "lat": 10.7876851195878,
        "lng": 106.74994468689,
        "url": "https://giaothong.hochiminhcity.gov.vn:8007/Render/CameraHandler.ashx?id=56de42f611f398ec0c481282&bg=black&w=520&h=300",
        "status": "UP"
    },
    {
        "id": "58df4c2bdc195800111e04b7",
        "name": "Thăng Long - Phan Thúc Duyện",
        "lat": 10.8044525679523,
        "lng": 106.660938262939,
        "url": "https://giaothong.hochiminhcity.gov.vn:8007/Render/CameraHandler.ashx?id=58df4c2bdc195800111e04b7&bg=black&w=520&h=300",
        "status": "NOT_IMAGE"
    },
    {
        "id": "5a6066608576340017d06617",
        "name": "Quang Trung - Tân Sơn",
        "lat": 10.839438820585,
        "lng": 106.647216081619,
        "url": "https://giaothong.hochiminhcity.gov.vn:8007/Render/CameraHandler.ashx?id=5a6066608576340017d06617&bg=black&w=520&h=300",
        "status": "UP"
    },
    {
        "id": "6623ea416f998a001b25260a",
        "name": "Phan Đình Phùng - Nguyễn Trọng Tuyển",
        "lat": 10.7971913554037,
        "lng": 106.681151390076,
        "url": "https://giaothong.hochiminhcity.gov.vn:8007/Render/CameraHandler.ashx?id=6623ea416f998a001b25260a&bg=black&w=520&h=300",
        "status": "UP"
    },
    {
        "id": "662b872d1afb9c00172dd36a",
        "name": "Lê Văn Sỹ - Trần Quang Diệu",
        "lat": 10.7878115903301,
        "lng": 106.677889823914,
        "url": "https://giaothong.hochiminhcity.gov.vn:8007/Render/CameraHandler.ashx?id=662b872d1afb9c00172dd36a&bg=black&w=520&h=300",
        "status": "UP"
    },
    {
        "id": "6623e4b06f998a001b2522f1",
        "name": "Nguyễn Thị Minh Khai - Nguyễn Thượng Hiền",
        "lat": 10.7703792050172,
        "lng": 106.686387062073,
        "url": "https://giaothong.hochiminhcity.gov.vn:8007/Render/CameraHandler.ashx?id=6623e4b06f998a001b2522f1&bg=black&w=520&h=300",
        "status": "UP"
    },
    {
        "id": "56de42f611f398ec0c48127e",
        "name": "Mai Chí Thọ - Võ Nguyên Giáp (Cát Lái cầu B)",
        "lat": 10.8062546704304,
        "lng": 106.754064559937,
        "url": "https://giaothong.hochiminhcity.gov.vn:8007/Render/CameraHandler.ashx?id=56de42f611f398ec0c48127e&bg=black&w=520&h=300",
        "status": "UP"
    },
    {
        "id": "595dd3a63dcfc400106f28a7",
        "name": "Quốc lộ 1 - Đường Tô Ngọc Vân 1",
        "lat": 10.8617667641718,
        "lng": 106.671018004417,
        "url": "https://giaothong.hochiminhcity.gov.vn:8007/Render/CameraHandler.ashx?id=595dd3a63dcfc400106f28a7&bg=black&w=520&h=300",
        "status": "UP"
    },
    {
        "id": "56f8d743025e9511002786c5",
        "name": "Trường Sơn - Ga Quốc Nội 1",
        "lat": 10.8128675561166,
        "lng": 106.664929389954,
        "url": "https://giaothong.hochiminhcity.gov.vn:8007/Render/CameraHandler.ashx?id=56f8d743025e9511002786c5&bg=black&w=520&h=300",
        "status": "UP"
    },
    {
        "id": "68ede5d4230ee50017d04c24",
        "name": "Đại lộ Bình Dương - ngã 5 Phước Kiến (1)",
        "lat": 10.9929925503389,
        "lng": 106.655187606812,
        "url": "https://giaothong.hochiminhcity.gov.vn:8007/Render/CameraHandler.ashx?id=68ede5d4230ee50017d04c24&bg=black&w=520&h=300",
        "status": "NOT_IMAGE"
    },
    {
        "id": "5a8266105058170011f6eadf",
        "name": "Nguyễn Văn Linh - Quốc lộ 50 (2)",
        "lat": 10.7190774577163,
        "lng": 106.655761599541,
        "url": "https://giaothong.hochiminhcity.gov.vn:8007/Render/CameraHandler.ashx?id=5a8266105058170011f6eadf&bg=black&w=520&h=300",
        "status": "UP"
    },
    {
        "id": "662b5afe1afb9c00172d9284",
        "name": "Trường Chinh - Phan Huy Ích 2",
        "lat": 10.8227260178037,
        "lng": 106.629813909531,
        "url": "https://giaothong.hochiminhcity.gov.vn:8007/Render/CameraHandler.ashx?id=662b5afe1afb9c00172d9284&bg=black&w=520&h=300",
        "status": "UP"
    },
    {
        "id": "5a82602c5058170011f6ead9",
        "name": "Vĩnh Lộc - Nguyễn Thị Tú 1",
        "lat": 10.8135788937036,
        "lng": 106.579173803329,
        "url": "https://giaothong.hochiminhcity.gov.vn:8007/Render/CameraHandler.ashx?id=5a82602c5058170011f6ead9&bg=black&w=520&h=300",
        "status": "UP"
    },
    {
        "id": "585b2980c3f96200127dc502",
        "name": "Huỳnh Tấn Phát - Lưu Trọng Lư 2",
        "lat": 10.755127675229,
        "lng": 106.727993488312,
        "url": "https://giaothong.hochiminhcity.gov.vn:8007/Render/CameraHandler.ashx?id=585b2980c3f96200127dc502&bg=black&w=520&h=300",
        "status": "UP"
    },
    {
        "id": "56de42f611f398ec0c481284",
        "name": "Nguyễn Thị Minh Khai - Nguyễn Thiện Thuật",
        "lat": 10.7664899801327,
        "lng": 106.682481765747,
        "url": "https://giaothong.hochiminhcity.gov.vn:8007/Render/CameraHandler.ashx?id=56de42f611f398ec0c481284&bg=black&w=520&h=300",
        "status": "UP"
    },
    {
        "id": "662b56c51afb9c00172d9071",
        "name": "Bạch Đằng - Đặng Văn Sâm",
        "lat": 10.8146485314923,
        "lng": 106.671742200851,
        "url": "https://giaothong.hochiminhcity.gov.vn:8007/Render/CameraHandler.ashx?id=662b56c51afb9c00172d9071&bg=black&w=520&h=300",
        "status": "UP"
    },
    {
        "id": "63ae7a08bfd3d90017e8f285",
        "name": "Ba Tháng Hai - Lê Hồng Phong 1",
        "lat": 10.7710959130666,
        "lng": 106.673265695572,
        "url": "https://giaothong.hochiminhcity.gov.vn:8007/Render/CameraHandler.ashx?id=63ae7a08bfd3d90017e8f285&bg=black&w=520&h=300",
        "status": "UP"
    },
    {
        "id": "662a8b061afb9c00172d27d7",
        "name": "Nguyễn Văn Linh - đường số 1",
        "lat": 10.7232729964823,
        "lng": 106.660873889923,
        "url": "https://giaothong.hochiminhcity.gov.vn:8007/Render/CameraHandler.ashx?id=662a8b061afb9c00172d27d7&bg=black&w=520&h=300",
        "status": "UP"
    },
    {
        "id": "587ee7d7b807da0011e33d55",
        "name": "Phan Đăng Lưu - Nơ Trang Long",
        "lat": 10.8031879281753,
        "lng": 106.694852113724,
        "url": "https://giaothong.hochiminhcity.gov.vn:8007/Render/CameraHandler.ashx?id=587ee7d7b807da0011e33d55&bg=black&w=520&h=300",
        "status": "UP"
    },
    {
        "id": "5deb576d1dc17d7c5515ad12",
        "name": "Nam Kỳ Khởi Nghĩa - Lê Lợi",
        "lat": 10.7731,
        "lng": 106.70004,
        "url": "https://giaothong.hochiminhcity.gov.vn:8007/Render/CameraHandler.ashx?id=5deb576d1dc17d7c5515ad12&bg=black&w=520&h=300",
        "status": "NOT_IMAGE"
    },
    {
        "id": "5deb576d1dc17d7c5515ad17",
        "name": "Nguyễn Thị Minh Khai - Hai Bà Trưng",
        "lat": 10.782987,
        "lng": 106.698076,
        "url": "https://giaothong.hochiminhcity.gov.vn:8007/Render/CameraHandler.ashx?id=5deb576d1dc17d7c5515ad17&bg=black&w=520&h=300",
        "status": "UP"
    },
    {
        "id": "662b51a41afb9c00172d8926",
        "name": "Lê Văn Quới - Mã Lò",
        "lat": 10.7763973916927,
        "lng": 106.601006984711,
        "url": "https://giaothong.hochiminhcity.gov.vn:8007/Render/CameraHandler.ashx?id=662b51a41afb9c00172d8926&bg=black&w=520&h=300",
        "status": "UP"
    },
    {
        "id": "63ae7893bfd3d90017e8f1e1",
        "name": "Nguyễn Tất Thành - Lê Văn Linh",
        "lat": 10.7643450880206,
        "lng": 106.707345843315,
        "url": "https://giaothong.hochiminhcity.gov.vn:8007/Render/CameraHandler.ashx?id=63ae7893bfd3d90017e8f1e1&bg=black&w=520&h=300",
        "status": "UP"
    },
    {
        "id": "662a8b9e1afb9c00172d284d",
        "name": "đường dẫn cao tốc Thành Phố Hồ Chí Minh - Trung Lương - Tân Túc 1",
        "lat": 10.6882837981823,
        "lng": 106.585782766342,
        "url": "https://giaothong.hochiminhcity.gov.vn:8007/Render/CameraHandler.ashx?id=662a8b9e1afb9c00172d284d&bg=black&w=520&h=300",
        "status": "UP"
    },
    {
        "id": "5a823ba75058170011f6ea9e",
        "name": "Trần Hưng Đạo - Nguyễn Thái Học 1",
        "lat": 10.7682501504601,
        "lng": 106.695769429207,
        "url": "https://giaothong.hochiminhcity.gov.vn:8007/Render/CameraHandler.ashx?id=5a823ba75058170011f6ea9e&bg=black&w=520&h=300",
        "status": "UP"
    },
    {
        "id": "681887346dfb4b0018f8f36a",
        "name": "Trần Văn Giàu - Lê Đình Chi",
        "lat": 10.7803181070833,
        "lng": 106.532835960388,
        "url": "https://giaothong.hochiminhcity.gov.vn:8007/Render/CameraHandler.ashx?id=681887346dfb4b0018f8f36a&bg=black&w=520&h=300",
        "status": "NOT_IMAGE"
    },
    {
        "id": "662b5a401afb9c00172d91fc",
        "name": "Trường Chinh - Nguyễn Hồng Đào",
        "lat": 10.7980239271457,
        "lng": 106.6437292099,
        "url": "https://giaothong.hochiminhcity.gov.vn:8007/Render/CameraHandler.ashx?id=662b5a401afb9c00172d91fc&bg=black&w=520&h=300",
        "status": "UP"
    },
    {
        "id": "56df8544c062921100c143e6",
        "name": "Trường Sơn - Ga Quốc Tế",
        "lat": 10.8136315853096,
        "lng": 106.665363907814,
        "url": "https://giaothong.hochiminhcity.gov.vn:8007/Render/CameraHandler.ashx?id=56df8544c062921100c143e6&bg=black&w=520&h=300",
        "status": "UP"
    },
    {
        "id": "595ddb493dcfc400106f28b6",
        "name": "Quốc lộ 1 - Cầu vượt Tân Thới Hiệp 2",
        "lat": 10.8620881310764,
        "lng": 106.649731993675,
        "url": "https://giaothong.hochiminhcity.gov.vn:8007/Render/CameraHandler.ashx?id=595ddb493dcfc400106f28b6&bg=black&w=520&h=300",
        "status": "NOT_IMAGE"
    },
    {
        "id": "68188ab56dfb4b0018f8f7be",
        "name": "Võ Trần Chí - Thế Lữ 2",
        "lat": 10.7025688186824,
        "lng": 106.571438312531,
        "url": "https://giaothong.hochiminhcity.gov.vn:8007/Render/CameraHandler.ashx?id=68188ab56dfb4b0018f8f7be&bg=black&w=520&h=300",
        "status": "UP"
    },
    {
        "id": "66b1c1f2779f740018673f0d",
        "name": "An Dương Vương - Nguyễn Văn Cừ",
        "lat": 10.7611040058688,
        "lng": 106.683179140091,
        "url": "https://giaothong.hochiminhcity.gov.vn:8007/Render/CameraHandler.ashx?id=66b1c1f2779f740018673f0d&bg=black&w=520&h=300",
        "status": "UP"
    },
    {
        "id": "589b4379b3bf7600110283c9",
        "name": "QL 22 - Giáp Hải",
        "lat": 10.9713380309812,
        "lng": 106.481675505638,
        "url": "https://giaothong.hochiminhcity.gov.vn:8007/Render/CameraHandler.ashx?id=589b4379b3bf7600110283c9&bg=black&w=520&h=300",
        "status": "UP"
    },
    {
        "id": "5a60604f8576340017d0660b",
        "name": "Nguyễn Thái Sơn - Nguyễn Văn Nghi 2",
        "lat": 10.8243172516762,
        "lng": 106.686376333237,
        "url": "https://giaothong.hochiminhcity.gov.vn:8007/Render/CameraHandler.ashx?id=5a60604f8576340017d0660b&bg=black&w=520&h=300",
        "status": "UP"
    },
    {
        "id": "5d8cd9cb766c88001718895c",
        "name": "Phạm Văn Đồng - Tô Ngọc Vân (hướng đi Sân bay)",
        "lat": 10.8536007677866,
        "lng": 106.751317977905,
        "url": "https://giaothong.hochiminhcity.gov.vn:8007/Render/CameraHandler.ashx?id=5d8cd9cb766c88001718895c&bg=black&w=520&h=300",
        "status": "UP"
    },
    {
        "id": "6623e6b86f998a001b2523b8",
        "name": "Lý Thái Tổ - Hồ Thị Kỷ",
        "lat": 10.7669642785384,
        "lng": 106.676344871521,
        "url": "https://giaothong.hochiminhcity.gov.vn:8007/Render/CameraHandler.ashx?id=6623e6b86f998a001b2523b8&bg=black&w=520&h=300",
        "status": "UP"
    },
    {
        "id": "5a8256315058170011f6eac9",
        "name": "Đinh Bộ Lĩnh - Nguyễn Xí",
        "lat": 10.8133575888573,
        "lng": 106.709566712379,
        "url": "https://giaothong.hochiminhcity.gov.vn:8007/Render/CameraHandler.ashx?id=5a8256315058170011f6eac9&bg=black&w=520&h=300",
        "status": "UP"
    },
    {
        "id": "5ad064b498d8fc001102e26f",
        "name": "Lã Xuân Oai - Cầu Tăng Long (2)",
        "lat": 10.827699912827,
        "lng": 106.805992126465,
        "url": "https://giaothong.hochiminhcity.gov.vn:8007/Render/CameraHandler.ashx?id=5ad064b498d8fc001102e26f&bg=black&w=520&h=300",
        "status": "UP"
    },
    {
        "id": "58af8d68bd82540010390c2e",
        "name": "Nam Kỳ Khởi Nghĩa - Điện Biên Phủ 2",
        "lat": 10.7833376554873,
        "lng": 106.690700054169,
        "url": "https://giaothong.hochiminhcity.gov.vn:8007/Render/CameraHandler.ashx?id=58af8d68bd82540010390c2e&bg=black&w=520&h=300",
        "status": "NOT_IMAGE"
    },
    {
        "id": "65e0552f6b18080018db6647",
        "name": "Lê Lai - Phan Chu Trinh",
        "lat": 10.7717072215258,
        "lng": 106.697888374329,
        "url": "https://giaothong.hochiminhcity.gov.vn:8007/Render/CameraHandler.ashx?id=65e0552f6b18080018db6647&bg=black&w=520&h=300",
        "status": "UP"
    },
    {
        "id": "595da7783dcfc400106f2888",
        "name": "Quốc lộ 1 - Đường Vườn Lài 1",
        "lat": 10.8607341730882,
        "lng": 106.691998243332,
        "url": "https://giaothong.hochiminhcity.gov.vn:8007/Render/CameraHandler.ashx?id=595da7783dcfc400106f2888&bg=black&w=520&h=300",
        "status": "UP"
    },
    {
        "id": "66b1c22f779f740018673f6e",
        "name": "Vòng xoay Phú Lâm (2)",
        "lat": 10.7536309389593,
        "lng": 106.633923053741,
        "url": "https://giaothong.hochiminhcity.gov.vn:8007/Render/CameraHandler.ashx?id=66b1c22f779f740018673f6e&bg=black&w=520&h=300",
        "status": "UP"
    },
    {
        "id": "662a8e121afb9c00172d2a3f",
        "name": "Huỳnh Tấn Phát - cầu Tân Thuận 1",
        "lat": 10.7554228054478,
        "lng": 106.723868250847,
        "url": "https://giaothong.hochiminhcity.gov.vn:8007/Render/CameraHandler.ashx?id=662a8e121afb9c00172d2a3f&bg=black&w=520&h=300",
        "status": "UP"
    },
    {
        "id": "662b5be91afb9c00172d939b",
        "name": "Lê Trọng Tấn - Tây Thạnh",
        "lat": 10.8082464553192,
        "lng": 106.618773937225,
        "url": "https://giaothong.hochiminhcity.gov.vn:8007/Render/CameraHandler.ashx?id=662b5be91afb9c00172d939b&bg=black&w=520&h=300",
        "status": "UP"
    },
    {
        "id": "5b728aafca0577001163ff7e",
        "name": "Hồng Bàng - Châu Văn Liêm",
        "lat": 10.7548430851016,
        "lng": 106.658910512924,
        "url": "https://giaothong.hochiminhcity.gov.vn:8007/Render/CameraHandler.ashx?id=5b728aafca0577001163ff7e&bg=black&w=520&h=300",
        "status": "UP"
    },
    {
        "id": "6818901a6dfb4b0018f9058a",
        "name": "Tỉnh Lộ 10 - cầu Tân Tạo",
        "lat": 10.7601026888897,
        "lng": 106.574045419693,
        "url": "https://giaothong.hochiminhcity.gov.vn:8007/Render/CameraHandler.ashx?id=6818901a6dfb4b0018f9058a&bg=black&w=520&h=300",
        "status": "UP"
    },
    {
        "id": "63ae7966bfd3d90017e8f240",
        "name": "Cách Mạng Tháng Tám - Tô Hiến Thành",
        "lat": 10.7828791919741,
        "lng": 106.672096252441,
        "url": "https://giaothong.hochiminhcity.gov.vn:8007/Render/CameraHandler.ashx?id=63ae7966bfd3d90017e8f240&bg=black&w=520&h=300",
        "status": "UP"
    },
    {
        "id": "662b4efc1afb9c00172d86bc",
        "name": "Trần Hưng Đạo - Trần Phú",
        "lat": 10.7525663544172,
        "lng": 106.667847633362,
        "url": "https://giaothong.hochiminhcity.gov.vn:8007/Render/CameraHandler.ashx?id=662b4efc1afb9c00172d86bc&bg=black&w=520&h=300",
        "status": "UP"
    },
    {
        "id": "5a607fa38576340017d06671",
        "name": "QL1-KCN Vĩnh Lộc (2) - Hướng An Lạc",
        "lat": 10.8253815821995,
        "lng": 106.603088378906,
        "url": "https://giaothong.hochiminhcity.gov.vn:8007/Render/CameraHandler.ashx?id=5a607fa38576340017d06671&bg=black&w=520&h=300",
        "status": "UP"
    },
    {
        "id": "662b87551afb9c00172dd43a",
        "name": "Trần Quốc Thảo - Kỳ Đồng",
        "lat": 10.7848974801384,
        "lng": 106.683104038239,
        "url": "https://giaothong.hochiminhcity.gov.vn:8007/Render/CameraHandler.ashx?id=662b87551afb9c00172dd43a&bg=black&w=520&h=300",
        "status": "UP"
    },
    {
        "id": "5deb576d1dc17d7c5515ad21",
        "name": "Nút giao Ngã sáu Nguyễn Tri Phương",
        "lat": 10.759539,
        "lng": 106.668851,
        "url": "https://giaothong.hochiminhcity.gov.vn:8007/Render/CameraHandler.ashx?id=5deb576d1dc17d7c5515ad21&bg=black&w=520&h=300",
        "status": "UP"
    },
    {
        "id": "68188bf46dfb4b0018f8ff12",
        "name": "Vĩnh Lộc - kênh Trung Ương",
        "lat": 10.7908574113044,
        "lng": 106.555495262146,
        "url": "https://giaothong.hochiminhcity.gov.vn:8007/Render/CameraHandler.ashx?id=68188bf46dfb4b0018f8ff12&bg=black&w=520&h=300",
        "status": "UP"
    },
    {
        "id": "68a589a54e89b100173b6267",
        "name": "Tỉnh Lộ 8 - Sông Lu (1)",
        "lat": 10.9802907242505,
        "lng": 106.610898971558,
        "url": "https://giaothong.hochiminhcity.gov.vn:8007/Render/CameraHandler.ashx?id=68a589a54e89b100173b6267&bg=black&w=520&h=300",
        "status": "UP"
    },
    {
        "id": "56de42f611f398ec0c481289",
        "name": "Võ Văn Kiệt - Cầu Ông Lãnh 2",
        "lat": 10.7639024056841,
        "lng": 106.698285341263,
        "url": "https://giaothong.hochiminhcity.gov.vn:8007/Render/CameraHandler.ashx?id=56de42f611f398ec0c481289&bg=black&w=520&h=300",
        "status": "UP"
    },
    {
        "id": "58ad69c4bd82540010390be7",
        "name": "Nút giao Phú Nhuận 2 (Phan Đăng Lưu)",
        "lat": 10.7993096663153,
        "lng": 106.680368185043,
        "url": "https://giaothong.hochiminhcity.gov.vn:8007/Render/CameraHandler.ashx?id=58ad69c4bd82540010390be7&bg=black&w=520&h=300",
        "status": "UP"
    },
    {
        "id": "6623f5876f998a001b25291a",
        "name": "Võ Nguyên Giáp - quay đầu An Phú (1)",
        "lat": 10.8021340576256,
        "lng": 106.745932102203,
        "url": "https://giaothong.hochiminhcity.gov.vn:8007/Render/CameraHandler.ashx?id=6623f5876f998a001b25291a&bg=black&w=520&h=300",
        "status": "UP"
    },